[
  {
    "FMID": 1016782,
    "MarketName": "175th Street Greenmarket",
    "city": "New York",
    "County": "New York",
    "State": "New York",
    "lat": 40.8464,
    "lng": -73.938,
    "Website": "https://www.grownyc.org/greenmarket/manhattan/175th-street"
  },
  {
    "FMID": 1016784,
    "MarketName": "17th Street Farmers Market",
    "city": "Richmond",
    "County": "Richmond City",
    "State": "Virginia",
    "lat": 37.5339,
    "lng": -77.4284,
    "Website": "http://enrichmond.org"
  },
  {
    "FMID": 1012158,
    "MarketName": "21 Acres Farm Market",
    "city": "Woodinville",
    "County": "King",
    "State": "Washington",
    "lat": 47.7502,
    "lng": -122.157,
    "Website": "http://21acres.org"
  },
  {
    "FMID": 1000709,
    "MarketName": "22nd Annual Highlands Business Partnership Farmers Market",
    "city": "Highlands",
    "County": "Monmouth",
    "State": "New Jersey",
    "lat": 40.4048,
    "lng": -73.9944,
    "Website": "http://www.highlandsnj.com"
  },
  {
    "FMID": 1010775,
    "MarketName": "30A Farmers' Market",
    "city": "Rosemary Beach",
    "County": "Walton",
    "State": "Florida",
    "lat": 30.279,
    "lng": -86.0028
  },
  {
    "FMID": 1018389,
    "MarketName": "38th & Meridian Farmer's Market",
    "city": "Indianapolis",
    "County": "Marion",
    "State": "Indiana",
    "lat": 39.8256,
    "lng": -86.1575
  },
  {
    "FMID": 1018426,
    "MarketName": "61st Street Farmers Market",
    "city": "Chicago",
    "County": "Cook",
    "State": "Illinois",
    "lat": 41.7842,
    "lng": -87.5914,
    "Website": "http://61market.org"
  },
  {
    "FMID": 1000061,
    "MarketName": "79th Street Greenmarket",
    "city": "New York",
    "County": "New York",
    "State": "New York",
    "lat": 40.7818,
    "lng": -73.9757,
    "Website": "http://www.grownyc.org"
  },
  {
    "FMID": 1000062,
    "MarketName": "82nd Street Greenmarket",
    "city": "New York",
    "County": "New York",
    "State": "New York",
    "lat": 40.7737,
    "lng": -73.9501,
    "Website": "http://www.grownyc.org"
  },
  {
    "FMID": 1000063,
    "MarketName": "92nd Street Greenmarket",
    "city": "New York",
    "County": "New York",
    "State": "New York",
    "lat": 40.7809,
    "lng": -73.9464,
    "Website": "http://www.grownyc.org"
  },
  {
    "FMID": 1010617,
    "MarketName": "A + Organic Farmers Market",
    "city": "Boynton Beach",
    "County": "Palm Beach",
    "State": "Florida",
    "lat": 26.4894,
    "lng": -80.2211,
    "Website": "http://organicgrowndirect.com/"
  },
  {
    "FMID": 1010487,
    "MarketName": "Abingdon Farmers Market",
    "city": "Abingdon",
    "County": "Washington",
    "State": "Virginia",
    "lat": 36.7089,
    "lng": -81.9771,
    "Website": "http://www.abingdonfarmersmarket.com"
  },
  {
    "FMID": 1000065,
    "MarketName": "Abingdon Square Greenmarket",
    "city": "New York",
    "County": "New York",
    "State": "New York",
    "lat": 40.7372,
    "lng": -74.0053,
    "Website": "http://www.grownyc.org"
  },
  {
    "FMID": 1011313,
    "MarketName": "Abita Springs Farmers Market",
    "city": "Abita Springs",
    "County": "St. Tammany",
    "State": "Louisiana",
    "lat": 30.4793,
    "lng": -90.0389
  },
  {
    "FMID": 1003469,
    "MarketName": "Acton-Boxborough Farmers Market",
    "city": "Acton",
    "County": "Middlesex",
    "State": "Massachusetts",
    "lat": 42.4752,
    "lng": -71.4741,
    "Website": "http://www.ABFarmersMarket.org"
  },
  {
    "FMID": 1001083,
    "MarketName": "Ada Farmers' Market",
    "city": "Ada",
    "County": "Kent",
    "State": "Michigan",
    "lat": 42.9554,
    "lng": -85.489,
    "Website": "http://www.adafarmersmarket.com"
  },
  {
    "FMID": 1012233,
    "MarketName": "Agricenter International Farmers Market",
    "city": "Memphis",
    "County": "Shelby",
    "State": "Tennessee",
    "lat": 35.1289,
    "lng": -89.8037,
    "Website": "http://www.agricenter.org/farmers-market/"
  },
  {
    "FMID": 1011830,
    "MarketName": "Ahwatukee Farmers Market",
    "city": "Phoenix",
    "County": "Maricopa",
    "State": "Arizona",
    "lat": 33.3313,
    "lng": -111.9832
  },
  {
    "FMID": 1008054,
    "MarketName": "Airport Farmers and Flea Market",
    "city": "Brooksville",
    "County": "Hernando",
    "State": "Florida",
    "lat": 28.4811,
    "lng": -82.4411
  },
  {
    "FMID": 1009019,
    "MarketName": "Alameda Farmers' Market",
    "city": "Alameda",
    "County": "Alameda",
    "State": "California",
    "lat": 37.7742,
    "lng": -122.2768,
    "Website": "http://www.pcfma.com"
  },
  {
    "FMID": 1002222,
    "MarketName": "Alcona Farmers Market",
    "city": "Harrisville",
    "County": "Alcona",
    "State": "Michigan",
    "lat": 44.6547,
    "lng": -83.2973,
    "Website": "http://www.alconalocalfoods.org"
  },
  {
    "FMID": 1006739,
    "MarketName": "Alliance for the Arts GreenMarket",
    "city": "Ft. Myers",
    "County": "Lee",
    "State": "Florida",
    "lat": 26.5952,
    "lng": -81.8913,
    "Website": "http://www.artinlee.org"
  },
  {
    "FMID": 1010476,
    "MarketName": "Alpena Farmers' Market",
    "city": "Alpena",
    "County": "Alpena",
    "State": "Michigan",
    "lat": 45.0619,
    "lng": -83.431,
    "Website": "http://alpenafarmersmarket.org"
  },
  {
    "FMID": 1009998,
    "MarketName": "Altadena Farmers' Market",
    "city": "Altadena",
    "County": "Los Angeles",
    "State": "California",
    "lat": 34.2004,
    "lng": -118.1581,
    "Website": "http://www.altadenafarmersmarket.com"
  },
  {
    "FMID": 1011421,
    "MarketName": "Alum Rock Village Farmers' Market",
    "city": "San Jose",
    "County": "Santa Clara",
    "State": "California",
    "lat": 37.3678,
    "lng": -121.8333,
    "Website": "http://www.pcfma.org"
  },
  {
    "FMID": 1008399,
    "MarketName": "Amelia Farmers Market",
    "city": "Amelia Island",
    "County": "Nassau",
    "State": "Florida",
    "lat": 30.5798,
    "lng": -81.4545,
    "Website": "http://www.ameliafarmersmarket.com"
  },
  {
    "FMID": 1000284,
    "MarketName": "Amherst Farmers' Market",
    "city": "Amherst Center",
    "County": "Hampshire",
    "State": "Massachusetts",
    "lat": 42.3749,
    "lng": -72.5194,
    "Website": "http://www.AmherstFarmersMarket.com"
  },
  {
    "FMID": 1009833,
    "MarketName": "Amherst Winter Farmers' Market",
    "city": "Amherst",
    "County": "Hampshire",
    "State": "Massachusetts",
    "lat": 42.3849,
    "lng": -72.5111,
    "Website": "http://www.amherstwintermarket.com"
  },
  {
    "FMID": 1005944,
    "MarketName": "Anacortes Farmers Market",
    "city": "Anacortes",
    "County": "Skagit",
    "State": "Washington",
    "lat": 48.517,
    "lng": -122.6092,
    "Website": "http://www.anacortesfarmersmarket.org"
  },
  {
    "FMID": 1010223,
    "MarketName": "Ann Arbor Farmers Market",
    "city": "Ann Arbor",
    "County": "Washtenaw",
    "State": "Michigan",
    "lat": 42.2838,
    "lng": -83.7467,
    "Website": "http://www.a2gov.org/market"
  },
  {
    "FMID": 1001142,
    "MarketName": "Anne Arundel County Farmers' Market  (Riva)",
    "city": "Annapolis",
    "County": "Anne Arundel",
    "State": "Maryland",
    "lat": 38.9763,
    "lng": -76.5556,
    "Website": "http://www.aacofarmersmarket.com/"
  },
  {
    "FMID": 1004557,
    "MarketName": "Antigo Farmers Market, Inc.",
    "city": "Antigo",
    "County": "Langlade",
    "State": "Wisconsin",
    "lat": 45.1419,
    "lng": -89.1523,
    "Website": "http://www.antigomarket.com"
  },
  {
    "FMID": 1000431,
    "MarketName": "Appleton Downtown Farm Market",
    "city": "Appleton",
    "County": "Outagamie",
    "State": "Wisconsin",
    "lat": 44.262,
    "lng": -88.407,
    "Website": "http://www.appletondowntown.org"
  },
  {
    "FMID": 1009687,
    "MarketName": "Aptos Farmers Market at Cabrillo College",
    "city": "Aptos",
    "County": "Santa Cruz",
    "State": "California",
    "lat": 36.9873,
    "lng": -121.927,
    "Website": "http://www.montereybayfarmers.org"
  },
  {
    "FMID": 1001738,
    "MarketName": "Aquidneck Growers' Markets",
    "city": "Middletown",
    "County": "Newport",
    "State": "Rhode Island",
    "lat": 41.5292,
    "lng": -71.2719,
    "Website": "http://www.aquidneckgrowersmarket.org"
  },
  {
    "FMID": 1012474,
    "MarketName": "Arcadia's Mobile Market -- Barry Farm Recreation Center",
    "city": "Washington",
    "County": "District of Columbia",
    "State": "District of Columbia",
    "lat": 38.8607,
    "lng": -76.9967,
    "Website": "http://arcadiafood.org/programs/mobile-market"
  },
  {
    "FMID": 1012410,
    "MarketName": "Arcadia's Mobile Market -- Children's National Medical Center WIC Clinic",
    "city": "Washington",
    "County": "District of Columbia",
    "State": "District of Columbia",
    "lat": 38.9272,
    "lng": -77.0147,
    "Website": "http://arcadiafood.org/programs/mobile-market"
  },
  {
    "FMID": 1012375,
    "MarketName": "Arcadia's Mobile Market -- Community of Hope - Conway Health and Resource Center",
    "city": "Washington",
    "County": "District of Columbia",
    "State": "District of Columbia",
    "lat": 38.8312,
    "lng": -77.0094,
    "Website": "http://arcadiafood.org/programs/mobile-market"
  },
  {
    "FMID": 1012453,
    "MarketName": "Arcadia's Mobile Market -- Community of Hope Family Health & Birth Center",
    "city": "Washington",
    "County": "District of Columbia",
    "State": "District of Columbia",
    "lat": 38.9008,
    "lng": -76.9781,
    "Website": "http://arcadiafood.org/programs/mobile-market"
  },
  {
    "FMID": 1012422,
    "MarketName": "Arcadia's Mobile Market -- Congress Heights Senior Wellness Center",
    "city": "Washington",
    "County": "District of Columbia",
    "State": "District of Columbia",
    "lat": 38.8401,
    "lng": -77.0044,
    "Website": "http://arcadiafood.org/programs/mobile-market"
  },
  {
    "FMID": 1012455,
    "MarketName": "Arcadia's Mobile Market -- Deanwood Recreation Center",
    "city": "Washington",
    "County": "District of Columbia",
    "State": "District of Columbia",
    "lat": 38.9083,
    "lng": -76.9325,
    "Website": "http://arcadiafood.org/programs/mobile-market"
  },
  {
    "FMID": 1012477,
    "MarketName": "Arcadia's Mobile Market -- Edgewood Commons",
    "city": "Washington",
    "County": "District of Columbia",
    "State": "District of Columbia",
    "lat": 38.9238,
    "lng": -76.9972,
    "Website": "http://arcadiafood.org/programs/mobile-market"
  },
  {
    "FMID": 1012413,
    "MarketName": "Arcadia's Mobile Market -- Hendley Elementary",
    "city": "Washington",
    "County": "District of Columbia",
    "State": "District of Columbia",
    "lat": 38.8286,
    "lng": -76.9991,
    "Website": "http://arcadiafood.org/programs/mobile-market"
  },
  {
    "FMID": 1012419,
    "MarketName": "Arcadia's Mobile Market -- Ledroit Park",
    "city": "Washington",
    "County": "District of Columbia",
    "State": "District of Columbia",
    "lat": 38.9175,
    "lng": -77.016,
    "Website": "http://arcadiafood.org/programs/mobile-market"
  },
  {
    "FMID": 1012454,
    "MarketName": "Arcadia's Mobile Market -- Parkside Unity Healthcare/Circle 7 Express",
    "city": "Washington",
    "County": "District of Columbia",
    "State": "District of Columbia",
    "lat": 38.9008,
    "lng": -76.9469,
    "Website": "http://arcadiafood.org/programs/mobile-market"
  },
  {
    "FMID": 1012427,
    "MarketName": "Arcadia's Mobile Market -- United Medical Center",
    "city": "Washington",
    "County": "District of Columbia",
    "State": "District of Columbia",
    "lat": 38.8359,
    "lng": -76.985,
    "Website": "http://arcadiafood.org/programs/mobile-market"
  },
  {
    "FMID": 1012377,
    "MarketName": "Arcadia's Mobile Market -- Wah Luck House Chinatown",
    "city": "Washington",
    "County": "District of Columbia",
    "State": "District of Columbia",
    "lat": 38.9002,
    "lng": -77.0202,
    "Website": "http://arcadiafood.org/programs/mobile-market"
  },
  {
    "FMID": 1002085,
    "MarketName": "Arcata Plaza Farmers' Market",
    "city": "Arcata",
    "County": "Humboldt",
    "State": "California",
    "lat": 40.8684,
    "lng": -124.0869,
    "Website": "http://www.humfarm.org"
  },
  {
    "FMID": 1010882,
    "MarketName": "Argus Farm Stop",
    "city": "Ann Arbor",
    "County": "Washtenaw",
    "State": "Michigan",
    "lat": 42.279,
    "lng": -83.7521,
    "Website": "http://www.argusfarmstop.com"
  },
  {
    "FMID": 1009968,
    "MarketName": "Arlington Farmers Market",
    "city": "Arlington, Ma.",
    "County": "Middlesex",
    "State": "Massachusetts",
    "lat": 42.4277,
    "lng": -71.1647,
    "Website": "http://farmersmarketarlington.org"
  },
  {
    "FMID": 1018253,
    "MarketName": "Arlington Farmers Market",
    "city": "Arlington",
    "County": "Arlington",
    "State": "Virginia",
    "lat": 38.8896,
    "lng": -77.0846,
    "Website": "http://www.community-foodworks.org/arlington-courthouse-market"
  },
  {
    "FMID": 1010575,
    "MarketName": "Artisan Exchange West Chester",
    "city": "West Chester",
    "County": "Chester",
    "State": "Pennsylvania",
    "lat": 39.9483,
    "lng": -75.5878,
    "Website": "http://www.artisanexchangewcpa.com"
  },
  {
    "FMID": 1003219,
    "MarketName": "Ashe County Farmers Market",
    "city": "West Jefferson",
    "County": "Ashe",
    "State": "North Carolina",
    "lat": 36.4025,
    "lng": -81.4935,
    "Website": "http://www.ashefarmersmarket.com"
  },
  {
    "FMID": 1008904,
    "MarketName": "Asheville City Market",
    "city": "Asheville",
    "County": "Buncombe",
    "State": "North Carolina",
    "lat": 35.5935,
    "lng": -82.5489,
    "Website": "http://asapconnections.org/citymarket"
  },
  {
    "FMID": 1009810,
    "MarketName": "Ashland Farmers Market",
    "city": "Ashland",
    "County": "Middlesex",
    "State": "Massachusetts",
    "lat": 42.26,
    "lng": -71.4615,
    "Website": "http://www.ashlandfarmersmarket.org/"
  },
  {
    "FMID": 1018712,
    "MarketName": "Ashmont Farmers Market",
    "city": "Dorchester",
    "County": "Suffolk",
    "State": "Massachusetts",
    "lat": 42.2855,
    "lng": -71.0642
  },
  {
    "FMID": 1004692,
    "MarketName": "Aspen Grove Farmers' Market",
    "city": "Littleton",
    "County": "Arapahoe",
    "State": "Colorado",
    "lat": 39.5855,
    "lng": -105.0252,
    "Website": "http://www.denverfarmersmarket.com"
  },
  {
    "FMID": 1000297,
    "MarketName": "Athens Locally Grown",
    "city": "Athens",
    "County": "Clarke",
    "State": "Georgia",
    "lat": 33.9563,
    "lng": -83.3838,
    "Website": "http://www.athens.locallygrown.net"
  },
  {
    "FMID": 1002987,
    "MarketName": "Atherton Market",
    "city": "Charlotte",
    "County": "Mecklenburg",
    "State": "North Carolina",
    "lat": 35.2084,
    "lng": -80.8613,
    "Website": "http://www.athertonmillandmarket.com"
  },
  {
    "FMID": 1006303,
    "MarketName": "Atlantic Highlands Chamber of Commerce Farmers' Market",
    "city": "Atlantic Highlands",
    "County": "Monmouth",
    "State": "New Jersey",
    "lat": 40.4128,
    "lng": -74.0389,
    "Website": "http://www.AtlanticHighlands.org"
  },
  {
    "FMID": 1010003,
    "MarketName": "Atwater Village Farmers' Market",
    "city": "Los Angeles",
    "County": "Los Angeles",
    "State": "California",
    "lat": 34.1184,
    "lng": -118.2598,
    "Website": "http://www.seela.org/atwater-village-farmers-market/"
  },
  {
    "FMID": 1011950,
    "MarketName": "Auburn International Farmers Market",
    "city": "Auburn",
    "County": "King",
    "State": "Washington",
    "lat": 47.3068,
    "lng": -122.2315,
    "Website": "http://www.auburnfarmersmarket.org/"
  },
  {
    "FMID": 1008999,
    "MarketName": "Audubon Park Community Market",
    "city": "Orlando",
    "County": "Orange",
    "State": "Florida",
    "lat": 28.5684,
    "lng": -81.3464,
    "Website": "http://audubonmarket.com/"
  },
  {
    "FMID": 1000870,
    "MarketName": "Augusta State Farmer's Market",
    "city": "AUGUSTA",
    "County": "Richmond",
    "State": "Georgia",
    "lat": 33.4625,
    "lng": -81.9641,
    "Website": "http://WWW.AGR.GEORGIA.GOV"
  },
  {
    "FMID": 1004633,
    "MarketName": "Bainbridge Island Farmers' Market",
    "city": "Bainbridge Island",
    "County": "Kitsap",
    "State": "Washington",
    "lat": 47.626,
    "lng": -122.5192,
    "Website": "http://www.bainbridgefarmersmarket.org"
  },
  {
    "FMID": 1011333,
    "MarketName": "Ballard Farmers Market",
    "city": "Seattle",
    "County": "King",
    "State": "Washington",
    "lat": 47.6676,
    "lng": -122.3847,
    "Website": "http://sfmamarkets.com"
  },
  {
    "FMID": 1000790,
    "MarketName": "Baltimore Farmers' Market",
    "city": "Baltimore",
    "County": "Baltimore City",
    "State": "Maryland",
    "lat": 39.2929,
    "lng": -76.6215,
    "Website": "http://www.promotionandarts.org"
  },
  {
    "FMID": 1010152,
    "MarketName": "Bar Harbor Eden Farmers' Market",
    "city": "Bar Harbor",
    "County": "Hancock",
    "State": "Maine",
    "lat": 44.3831,
    "lng": -68.2034,
    "Website": "http://www.mdifarmersmarkets.com"
  },
  {
    "FMID": 1002881,
    "MarketName": "Barberville Family Farm Swap & Market",
    "city": "Barberville",
    "County": "Volusia",
    "State": "Florida",
    "lat": 29.1826,
    "lng": -81.4258,
    "Website": "http://www.farmswapmarket.com"
  },
  {
    "FMID": 1008918,
    "MarketName": "Barclays Center",
    "city": "Brooklyn",
    "County": "New York",
    "State": "New York",
    "lat": 40.678,
    "lng": -73.9511,
    "Website": "http://www.grownyc.org"
  },
  {
    "FMID": 1006001,
    "MarketName": "Bartel Pritchard Square Greenmarket",
    "city": "Brooklyn",
    "County": "Kings",
    "State": "New York",
    "lat": 40.6611,
    "lng": -73.9793,
    "Website": "http://www.grownyc.org/greenmarket"
  },
  {
    "FMID": 1008194,
    "MarketName": "Bartlett Station Farmers Market",
    "city": "Bartlett",
    "County": "Shelby",
    "State": "Tennessee",
    "lat": 35.1974,
    "lng": -89.8724,
    "Website": "http://www.bartlettstationfarmersmarket.org"
  },
  {
    "FMID": 1000057,
    "MarketName": "Bay Ridge Greenmarket",
    "city": "New York",
    "County": "Kings",
    "State": "New York",
    "lat": 40.617,
    "lng": -74.0321,
    "Website": "http://www.grownyc.org"
  },
  {
    "FMID": 1012004,
    "MarketName": "Bayside Harvest Market",
    "city": "Crisfield",
    "County": "Somerset",
    "State": "Maryland",
    "lat": 37.9791,
    "lng": -75.8617,
    "Website": "http://somosinc.org"
  },
  {
    "FMID": 1003912,
    "MarketName": "Baywood/Los Osos Certified Farmers Market",
    "city": "Baywood",
    "County": "San Luis Obispo",
    "State": "California",
    "lat": 35.3282,
    "lng": -120.8409,
    "Website": "http://www.northcountyfarmersmarkets.com"
  },
  {
    "FMID": 1012753,
    "MarketName": "Beach Baptist Farmers Market",
    "city": "Fort Myers Beach",
    "County": "Lee",
    "State": "Florida",
    "lat": 26.4425,
    "lng": -81.9305,
    "Website": "http://www.41markets.com"
  },
  {
    "FMID": 1001852,
    "MarketName": "Beaches Green Market",
    "city": "Neptune Beach",
    "County": "Duval",
    "State": "Florida",
    "lat": 30.315,
    "lng": -81.3973,
    "Website": "http://www.diglocalnetwork.com"
  },
  {
    "FMID": 1018602,
    "MarketName": "Beatrice Farmers' Market",
    "city": "Beatrice",
    "County": "Gage",
    "State": "Nebraska",
    "lat": 40.2657,
    "lng": -96.7438,
    "Website": "http://www.mainstreetbeatrice.org/"
  },
  {
    "FMID": 1001403,
    "MarketName": "Beaverton Farmers Market",
    "city": "Beaverton",
    "County": "Washington",
    "State": "Oregon",
    "lat": 45.4843,
    "lng": -122.805,
    "Website": "http://www.beavertonfarmersmarket.com"
  },
  {
    "FMID": 1008103,
    "MarketName": "Beaverton Farmers Market - Wednesday",
    "city": "Beaverton",
    "County": "Washington",
    "State": "Oregon",
    "lat": 45.4843,
    "lng": -122.805,
    "Website": "http://www.beavertonfarmersmarket.com"
  },
  {
    "FMID": 1018709,
    "MarketName": "Bedford Farmers Market",
    "city": "Bedford",
    "County": "Hillsborough",
    "State": "New Hampshire",
    "lat": 42.9504,
    "lng": -71.4825,
    "Website": "http://bedfordfarmersmarket.org"
  },
  {
    "FMID": 1018388,
    "MarketName": "Bedford Hills Winter Farmers' Market",
    "city": "Bedford Hills",
    "County": "Westchester",
    "State": "New York",
    "lat": 41.2373,
    "lng": -73.6999
  },
  {
    "FMID": 1008797,
    "MarketName": "Belfast Farmers' Market",
    "city": "Belfast",
    "County": "Waldo",
    "State": "Maine",
    "lat": 44.4292,
    "lng": -69.014,
    "Website": "http://www.belfastfarmersmarket.org"
  },
  {
    "FMID": 1011051,
    "MarketName": "Bellaire Farmers Market",
    "city": "Bellaire",
    "County": "Antrim",
    "State": "Michigan",
    "lat": 44.9748,
    "lng": -85.2053
  },
  {
    "FMID": 1002917,
    "MarketName": "Bellevue Farmers Market",
    "city": "Bellevue",
    "County": "King",
    "State": "Washington",
    "lat": 47.626,
    "lng": -122.202,
    "Website": "http://bellevuefarmersmarket.org"
  },
  {
    "FMID": 1009929,
    "MarketName": "Belmar Fresh Market",
    "city": "Lakewood",
    "County": "Jefferson",
    "State": "Colorado",
    "lat": 39.7111,
    "lng": -105.0814,
    "Website": "http://www.coloradofreshmarkets.com/"
  },
  {
    "FMID": 1011488,
    "MarketName": "Belmont Certified Farmers' Market",
    "city": "Belmont",
    "County": "San Mateo",
    "State": "California",
    "lat": 37.5188,
    "lng": -122.2736,
    "Website": "http://pcfma.org"
  },
  {
    "FMID": 1001640,
    "MarketName": "Belmont Farmers' Market",
    "city": "Belmont",
    "County": "Middlesex",
    "State": "Massachusetts",
    "lat": 42.3966,
    "lng": -71.1738,
    "Website": "http://www.belmontfarmersmarket.org"
  },
  {
    "FMID": 1012679,
    "MarketName": "Bensenville French Market",
    "city": "Bensenville",
    "County": "DuPage",
    "State": "Illinois",
    "lat": 41.9561,
    "lng": -87.9419,
    "Website": "http://www.bensidounmidwestmarkets.com/"
  },
  {
    "FMID": 1010815,
    "MarketName": "Benton Farmers' Market",
    "city": "Benton",
    "County": "Bossier",
    "State": "Louisiana",
    "lat": 32.6949,
    "lng": -93.737,
    "Website": "http://www.bentonlafarmersmarket.com"
  },
  {
    "FMID": 1005183,
    "MarketName": "Berkeley Springs Farmers Market",
    "city": "Berkeley Springs",
    "County": "Morgan",
    "State": "West Virginia",
    "lat": 39.6267,
    "lng": -78.2276,
    "Website": "http://www.berkeleyspringsfarmersmarket.com"
  },
  {
    "FMID": 1011252,
    "MarketName": "Berlin Local Works Farmers' Market",
    "city": "Berlin",
    "County": "Coos",
    "State": "New Hampshire",
    "lat": 44.4695,
    "lng": -71.1831,
    "Website": "http://www.wrenworks.org"
  },
  {
    "FMID": 1011447,
    "MarketName": "Berryessa Farmers' Market",
    "city": "San Jose",
    "County": "Santa Clara",
    "State": "California",
    "lat": 37.402,
    "lng": -121.8474,
    "Website": "http://www.pcfma.org"
  },
  {
    "FMID": 1003666,
    "MarketName": "Bethel Farmers Market",
    "city": "Bethel",
    "County": "Oxford",
    "State": "Maine",
    "lat": 44.412,
    "lng": -70.7941,
    "Website": "http://www.bethelfarmersmarket.com"
  },
  {
    "FMID": 1000745,
    "MarketName": "Bethesda - Farm Women's Market",
    "city": "Bethesda",
    "County": "Montgomery",
    "State": "Maryland",
    "lat": 38.9811,
    "lng": -77.0923,
    "Website": "http://www.farmwomensmarket.com"
  },
  {
    "FMID": 1010406,
    "MarketName": "Bethesda Central Farm Market",
    "city": "Bethesda",
    "County": "Montgomery",
    "State": "Maryland",
    "lat": 38.987,
    "lng": -77.0992,
    "Website": "http://www.centralfarmmarkets.com"
  },
  {
    "FMID": 1000335,
    "MarketName": "Beverly Farmers Market",
    "city": "Beverly",
    "County": "Essex",
    "State": "Massachusetts",
    "lat": 42.5468,
    "lng": -70.8843,
    "Website": "http://www.beverlyfarmersmarket.org"
  },
  {
    "FMID": 1001460,
    "MarketName": "Beverly Hills Farmers Market",
    "city": "Beverly Hills",
    "County": "Los Angeles",
    "State": "California",
    "lat": 34.0743,
    "lng": -118.3989,
    "Website": "http://www.beverlyhills.org/farmersmarket"
  },
  {
    "FMID": 1005730,
    "MarketName": "Big Sky Farmers Market",
    "city": "Big Sky",
    "County": "Gallatin",
    "State": "Montana",
    "lat": 45.2598,
    "lng": -111.3103,
    "Website": "http://www.bigskytowncenter.com"
  },
  {
    "FMID": 1008122,
    "MarketName": "Billerica Farmers Market",
    "city": "Billerica",
    "County": "Middlesex",
    "State": "Massachusetts",
    "lat": 42.5575,
    "lng": -71.2701,
    "Website": "http://www.billericafarmersmarket.org"
  },
  {
    "FMID": 1010217,
    "MarketName": "Birmingham Farmers Market",
    "city": "Birmingham",
    "County": "Oakland",
    "State": "Michigan",
    "lat": 42.5516,
    "lng": -83.2176,
    "Website": "http://www.birminghamfarmersmarket.org"
  },
  {
    "FMID": 1000730,
    "MarketName": "Black Hills Farmers Market Inc.",
    "city": "Rapid City",
    "County": "Pennington",
    "State": "South Dakota",
    "lat": 44.0847,
    "lng": -103.2443,
    "Website": "http://www.BlackHillsFarmersMarket.org"
  },
  {
    "FMID": 1003085,
    "MarketName": "Black Mountain Tailgate Market",
    "city": "Black Mountain",
    "County": "Buncombe",
    "State": "North Carolina",
    "lat": 35.6209,
    "lng": -82.3217,
    "Website": "http://www.blackmountaintailgatemarket.org"
  },
  {
    "FMID": 1011911,
    "MarketName": "Bliss Farmer's Market",
    "city": "Bliss",
    "County": "Emmet",
    "State": "Michigan",
    "lat": 45.6813,
    "lng": -84.8831
  },
  {
    "FMID": 1018396,
    "MarketName": "Bloomington Community Farmers' Market",
    "city": "Bloomington, IN",
    "County": "Monroe",
    "State": "Indiana",
    "lat": 39.1703,
    "lng": -86.5369,
    "Website": "http://bloomington.in.gov/farmersmarket"
  },
  {
    "FMID": 1018223,
    "MarketName": "Bloomington Farmers Market",
    "city": "Bloomington",
    "County": "Hennepin",
    "State": "Minnesota",
    "lat": 44.8259,
    "lng": -93.3011,
    "Website": "https://www.bloomingtonmn.gov/market/bloomington-farmers-market"
  },
  {
    "FMID": 1018563,
    "MarketName": "Bloomington Winter Farmers Market",
    "city": "Bloomington",
    "County": "Monroe",
    "State": "Indiana",
    "lat": 39.1615,
    "lng": -86.5217,
    "Website": "http://bloomingtonwinterfarmersmarket.org"
  },
  {
    "FMID": 1002737,
    "MarketName": "Blossom Hill Certified Farmers' Market",
    "city": "San Jose",
    "County": "Santa Clara",
    "State": "California",
    "lat": 37.2563,
    "lng": -121.86,
    "Website": "http://www.cafarmersmkts.com/markets/category/blossom"
  },
  {
    "FMID": 1004074,
    "MarketName": "Boalsburg Farmers Market",
    "city": "Boalsburg",
    "County": "Centre",
    "State": "Pennsylvania",
    "lat": 40.7804,
    "lng": -77.7971,
    "Website": "http://www.boalsburgfarmersmarket.com"
  },
  {
    "FMID": 1018374,
    "MarketName": "Boca Grande Farm & Fish Market",
    "city": "Boca Grande",
    "County": "Lee",
    "State": "Florida",
    "lat": 26.742,
    "lng": -82.26,
    "Website": "http://BuyLocalLee.com"
  },
  {
    "FMID": 1018134,
    "MarketName": "Boca Raton GreenMarket",
    "city": "Boca Raton",
    "County": "Palm Beach",
    "State": "Florida",
    "lat": 26.346,
    "lng": -80.0861
  },
  {
    "FMID": 1018313,
    "MarketName": "Boise Farmers Market",
    "city": "Boise City",
    "County": "Ada",
    "State": "Idaho",
    "lat": 43.6272,
    "lng": -116.1844,
    "Website": "http://WWW.THEBOISEFARMERSMARKET.COM"
  },
  {
    "FMID": 1018316,
    "MarketName": "BOISE FARMERS MARKET",
    "city": "Boise City",
    "County": "Ada",
    "State": "Idaho",
    "lat": 43.6068,
    "lng": -116.1938,
    "Website": "http://www.theboisefarmersmarket.com"
  },
  {
    "FMID": 1010517,
    "MarketName": "Bonita Springs Farmers Market",
    "city": "Bonita Springs",
    "County": "Lee",
    "State": "Florida",
    "lat": 26.3495,
    "lng": -81.8097,
    "Website": "http://BuyLocalLee.com"
  },
  {
    "FMID": 1004185,
    "MarketName": "Bonita Springs Lions Club Downtown Farmers Market",
    "city": "Bonita Springs",
    "County": "Lee",
    "State": "Florida",
    "lat": 26.3411,
    "lng": -81.7793,
    "Website": "http://www.Cityofbonitasprings.org"
  },
  {
    "FMID": 1012632,
    "MarketName": "Boone Street Market",
    "city": "Jonesborough",
    "County": "Washington",
    "State": "Tennessee",
    "lat": 36.2953,
    "lng": -82.472,
    "Website": "http://jonesborough.locallygrown.net"
  },
  {
    "FMID": 1012335,
    "MarketName": "Boulder Farmers Market",
    "city": "Boulder",
    "County": "Boulder",
    "State": "Colorado",
    "lat": 40.0152,
    "lng": -105.2776,
    "Website": "http://www.bcfm.org"
  },
  {
    "FMID": 1006542,
    "MarketName": "Bowdoin Geneva Farmers' Market",
    "city": "Dorchester",
    "County": "Suffolk",
    "State": "Massachusetts",
    "lat": 42.3058,
    "lng": -71.0679,
    "Website": "http://www.foodinthehood.wordpress.com"
  },
  {
    "FMID": 1018467,
    "MarketName": "Boyne City Farmers Market",
    "city": "Boyne City",
    "County": "Charlevoix",
    "State": "Michigan",
    "lat": 45.2169,
    "lng": -85.0155,
    "Website": "http://Www.boynecitymainstreet.com"
  },
  {
    "FMID": 1000162,
    "MarketName": "Bozrah Farmers Market",
    "city": "Bozrah",
    "County": "New London",
    "State": "Connecticut",
    "lat": 41.5522,
    "lng": -72.1683,
    "Website": "http://www.bozrahfarmersmarket.org"
  },
  {
    "FMID": 1010329,
    "MarketName": "BPMA at The Greenway",
    "city": "Boston",
    "County": "Essex",
    "State": "Massachusetts",
    "lat": 42.3624,
    "lng": -71.0573,
    "Website": "http://www.bostonpublicmarket.org"
  },
  {
    "FMID": 1012320,
    "MarketName": "Bradenton Farmers' Market",
    "city": "Bradenton",
    "County": "Manatee",
    "State": "Florida",
    "lat": 27.4972,
    "lng": -82.5734,
    "Website": "http://www.realizebradenton.com/farmers_market"
  },
  {
    "FMID": 1018227,
    "MarketName": "Braintree Farmers Market",
    "city": "Braintree",
    "County": "Norfolk",
    "State": "Massachusetts",
    "lat": 42.2064,
    "lng": -71.0049,
    "Website": "http://www.braintreefarmersmarket.org"
  },
  {
    "FMID": 1003465,
    "MarketName": "Brandermill Green Market",
    "city": "Midlothian",
    "County": "Chesterfield",
    "State": "Virginia",
    "lat": 37.4231,
    "lng": -77.6366,
    "Website": "http://www.brandermill.com"
  },
  {
    "FMID": 1018556,
    "MarketName": "Bremerton Farmers Market",
    "city": "Bremerton",
    "County": "Kitsap",
    "State": "Washington",
    "lat": 47.5743,
    "lng": -122.6289,
    "Website": "http://www.bremertonmarket.com"
  },
  {
    "FMID": 1011349,
    "MarketName": "Brentwood Farmers' Market",
    "city": "Brentwood",
    "County": "Contra Costa",
    "State": "California",
    "lat": 37.9326,
    "lng": -121.6948,
    "Website": "http://www.pcfma.org"
  },
  {
    "FMID": 1008611,
    "MarketName": "Brevard County Farmers Market",
    "city": "Melbourne",
    "County": "Brevard",
    "State": "Florida",
    "lat": 28.1603,
    "lng": -80.6669,
    "Website": "https://www.brevardcountyfarmersmarket.com"
  },
  {
    "FMID": 1011201,
    "MarketName": "Brick Farmers' Market",
    "city": "Brick",
    "County": "Monmouth",
    "State": "New Jersey",
    "lat": 40.0592,
    "lng": -74.1105,
    "Website": "http://www.brickfarmersmarket.com"
  },
  {
    "FMID": 1001519,
    "MarketName": "Bridgeport Farmers Market",
    "city": "Bridgeport",
    "County": "Harrison",
    "State": "West Virginia",
    "lat": 39.309,
    "lng": -80.2321
  },
  {
    "FMID": 1008382,
    "MarketName": "Bridgton Farmers Market",
    "city": "Bridgton",
    "County": "Oxford",
    "State": "Maine",
    "lat": 44.0541,
    "lng": -70.7077,
    "Website": "http://www.bridgtonfarmersmarket.com"
  },
  {
    "FMID": 1008017,
    "MarketName": "Bristow Farmers Market",
    "city": "Bristow",
    "County": "Prince William",
    "State": "Virginia",
    "lat": 38.7593,
    "lng": -77.5758,
    "Website": "http://www.BristowFarmersMarket.com"
  },
  {
    "FMID": 1006306,
    "MarketName": "Broadmoor Farmers Market",
    "city": "Colorado Springs",
    "County": "El Paso",
    "State": "Colorado",
    "lat": 38.7946,
    "lng": -104.8336,
    "Website": "http://www.springsfarmersmarket.com"
  },
  {
    "FMID": 1010385,
    "MarketName": "Broadway Farmers Market",
    "city": "Tacoma",
    "County": "Pierce",
    "State": "Washington",
    "lat": 47.2551,
    "lng": -122.4408,
    "Website": "http://www.tacomafarmersmarket.com"
  },
  {
    "FMID": 1012744,
    "MarketName": "Bronxville Farmers Market",
    "city": "Bronxville",
    "County": "Westchester",
    "State": "New York",
    "lat": 40.94,
    "lng": -73.8378,
    "Website": "http://www.bronxvillefarmersmarket.com/"
  },
  {
    "FMID": 1001097,
    "MarketName": "Brookfield Farmers Market",
    "city": "Brookfield",
    "County": "Waukesha",
    "State": "Wisconsin",
    "lat": 43.0578,
    "lng": -88.1256,
    "Website": "http://www.brookfieldfarmersmarket.com"
  },
  {
    "FMID": 1012726,
    "MarketName": "Brookhaven Farmers Market",
    "city": "Brookhaven",
    "County": "DeKalb",
    "State": "Georgia",
    "lat": 33.8601,
    "lng": -84.3347,
    "Website": "http://www.brookhavenfarmersmarket.com"
  },
  {
    "FMID": 1005671,
    "MarketName": "Brookings Harbor Farmers and Artisans Market",
    "city": "Brookings",
    "County": "Curry",
    "State": "Oregon",
    "lat": 42.0689,
    "lng": -124.2999,
    "Website": "http://www.LocalHarvest.com"
  },
  {
    "FMID": 1012091,
    "MarketName": "Brookline Farmers' Market",
    "city": "Brookline",
    "County": "Norfolk",
    "State": "Massachusetts",
    "lat": 42.3422,
    "lng": -71.1239,
    "Website": "http://brooklinefarmersmarket.com"
  },
  {
    "FMID": 1000100,
    "MarketName": "Brooklyn Borough Hall Greenmarket",
    "city": "Brooklyn",
    "County": "Kings",
    "State": "New York",
    "lat": 40.6937,
    "lng": -73.9904,
    "Website": "http://www.grownyc.org"
  },
  {
    "FMID": 1018135,
    "MarketName": "Brown Deer Farmers Market",
    "city": "Brown Deer",
    "County": "Milwaukee",
    "State": "Wisconsin",
    "lat": 43.1814,
    "lng": -87.9619,
    "Website": "http://www.browndeerfarmersmarket.org"
  },
  {
    "FMID": 1008607,
    "MarketName": "Brunswick-Topsham Land Trust Farmers' Market at Crystal Spring Farm",
    "city": "Brunswick",
    "County": "Cumberland",
    "State": "Maine",
    "lat": 43.8908,
    "lng": -69.9959,
    "Website": "http://www.btlt.org/farmers-market"
  },
  {
    "FMID": 1011923,
    "MarketName": "BTN Lake Nona Farmers Market",
    "city": "Orlando",
    "County": "Orange",
    "State": "Florida",
    "lat": 28.3848,
    "lng": -81.2461,
    "Website": "http://BTNLakeNonaFarmersMarket.weebly.com"
  },
  {
    "FMID": 1000843,
    "MarketName": "Burbank Certified Farmers' Market",
    "city": "Burbank",
    "County": "Los Angeles",
    "State": "California",
    "lat": 34.1828,
    "lng": -118.308,
    "Website": "http://www.burbankfarmersmarket.org"
  },
  {
    "FMID": 1012598,
    "MarketName": "Burke Farmers Market",
    "city": "Burke",
    "County": "Fairfax",
    "State": "Virginia",
    "lat": 38.797,
    "lng": -77.2989,
    "Website": "http://www.fairfaxcounty.gov/parks/farmersmarkets/burkemkt.htm"
  },
  {
    "FMID": 1012090,
    "MarketName": "Burlington Farmers Market",
    "city": "Burlington",
    "County": "Chittenden",
    "State": "Vermont",
    "lat": 44.4766,
    "lng": -73.2134,
    "Website": "http://www.burlingtonfarmersmarket.org"
  },
  {
    "FMID": 1011043,
    "MarketName": "Burlington Farmers' Market",
    "city": "Burlington",
    "County": "Middlesex",
    "State": "Massachusetts",
    "lat": 42.5037,
    "lng": -71.1909,
    "Website": "http://www.farmersmarketburlington.org"
  },
  {
    "FMID": 1001362,
    "MarketName": "Butte Farmers Market",
    "city": "Butte",
    "County": "Silver Bow",
    "State": "Montana",
    "lat": 46.0127,
    "lng": -112.5364,
    "Website": "http://www.mainstrreetbutte.org/fmarket.htm"
  },
  {
    "FMID": 1010322,
    "MarketName": "Buy Fresh Buy Local of North Carolina Farmers Market - Salisbury",
    "city": "Salisbury",
    "County": "Rowan",
    "State": "North Carolina",
    "lat": 35.6265,
    "lng": -80.4807,
    "Website": "http://seedfoundationnc.com/?page_id=134"
  },
  {
    "FMID": 1010321,
    "MarketName": "Buy Fresh Buy Local of North Carolina Farmers Market - Spencer",
    "city": "Spencer",
    "County": "Rowan",
    "State": "North Carolina",
    "lat": 35.6884,
    "lng": -80.4342,
    "Website": "http://seedfoundationnc.com/?page_id=134"
  },
  {
    "FMID": 1009640,
    "MarketName": "Cache Valley Gardeners' Market",
    "city": "Logan",
    "County": "Cache",
    "State": "Utah",
    "lat": 41.7348,
    "lng": -111.8357,
    "Website": "http://www.gardenersmarket.org"
  },
  {
    "FMID": 1018262,
    "MarketName": "Caledonia Farmers Market Association - Saturday",
    "city": "St. Johnsbury",
    "County": "Caledonia",
    "State": "Vermont",
    "lat": 44.4169,
    "lng": -72.0166,
    "Website": "https://sites.google.com/site/caledoniafarmersmarket/"
  },
  {
    "FMID": 1018263,
    "MarketName": "Caledonia Farmers Market Association - Winter",
    "city": "St. Johnsbury",
    "County": "Caledonia",
    "State": "Vermont",
    "lat": 44.4172,
    "lng": -72.0154,
    "Website": "https://sites.google.com/site/caledoniafarmersmarket/"
  },
  {
    "FMID": 1007348,
    "MarketName": "California Avenue Farmers' Market",
    "city": "Palo Alto",
    "County": "Santa Clara",
    "State": "California",
    "lat": 37.4142,
    "lng": -122.1253,
    "Website": "http://www.urbanvillageonline.com"
  },
  {
    "FMID": 1009017,
    "MarketName": "Calistoga Farmers Market",
    "city": "Calistoga",
    "County": "Napa",
    "State": "California",
    "lat": 38.5788,
    "lng": -122.5802,
    "Website": "http://www.calistogafarmersmarket.com"
  },
  {
    "FMID": 1008263,
    "MarketName": "Callaway Community Farmers' Market",
    "city": "Callaway",
    "County": "Bay",
    "State": "Florida",
    "lat": 30.145,
    "lng": -85.586,
    "Website": "http://www.WaterfrontMarkets.org"
  },
  {
    "FMID": 1002666,
    "MarketName": "Callicoon Farmers Market",
    "city": "Callicoon",
    "County": "Sullivan",
    "State": "New York",
    "lat": 41.7655,
    "lng": -75.0581,
    "Website": "http://www.sullivancountyfarmersmarkets.org"
  },
  {
    "FMID": 1002669,
    "MarketName": "Callicoon Indoor Winter Farmers' Market",
    "city": "Callicoon",
    "County": "Sullivan",
    "State": "New York",
    "lat": 41.764,
    "lng": -75.0555,
    "Website": "http://www.sullivancountyfarmersmarkets.org"
  },
  {
    "FMID": 1004192,
    "MarketName": "Calvert County Farmers Market - Barstow",
    "city": "Barstow",
    "County": "Calvert",
    "State": "Maryland",
    "lat": 38.5227,
    "lng": -76.6179,
    "Website": "http://www.calvertag.com"
  },
  {
    "FMID": 1004193,
    "MarketName": "Calvert County Farmers Market - Prince Frederick",
    "city": "Prince Frederick",
    "County": "Calvert",
    "State": "Maryland",
    "lat": 38.5588,
    "lng": -76.5977,
    "Website": "http://www.calvertag.com"
  },
  {
    "FMID": 1004194,
    "MarketName": "Calvert County Farmers Market - Solomons",
    "city": "Solomons",
    "County": "Calvert",
    "State": "Maryland",
    "lat": 38.3246,
    "lng": -76.4612,
    "Website": "http://www.calvertag.com"
  },
  {
    "FMID": 1010782,
    "MarketName": "Camano Island Farmers Market",
    "city": "Camano Island",
    "County": "Island",
    "State": "Washington",
    "lat": 48.2414,
    "lng": -122.4552
  },
  {
    "FMID": 1018257,
    "MarketName": "Camarillo Hospice Certified Farmers Market",
    "city": "Camarillo",
    "County": "Ventura",
    "State": "California",
    "lat": 34.2165,
    "lng": -119.0413,
    "Website": "http://camarillofarmersmarket.com"
  },
  {
    "FMID": 1007349,
    "MarketName": "Cambrian Park Farmers' Makret",
    "city": "San Jose",
    "County": "Santa Clara",
    "State": "California",
    "lat": 37.2618,
    "lng": -121.9314,
    "Website": "http://www.urbanvillageonline.com"
  },
  {
    "FMID": 1012479,
    "MarketName": "Cambridge Central Square Farmers Market",
    "city": "Cambridge",
    "County": "Middlesex",
    "State": "Massachusetts",
    "lat": 42.3652,
    "lng": -71.1013,
    "Website": "http://www.massfarmersmarkets.org"
  },
  {
    "FMID": 1004233,
    "MarketName": "Camden Avenue Farmers Market",
    "city": "Salisbury",
    "County": "Wicomico",
    "State": "Maryland",
    "lat": 38.3405,
    "lng": -75.6101,
    "Website": "http://CamdenAveFarmersMarket.com"
  },
  {
    "FMID": 1018502,
    "MarketName": "Cameron Park Farmers Market",
    "city": "La Crosse",
    "County": "La Crosse",
    "State": "Wisconsin",
    "lat": 43.8075,
    "lng": -91.2333,
    "Website": "http://cameronparkmarket.org/"
  },
  {
    "FMID": 1003776,
    "MarketName": "Cameron Park Wednesday Farmers' Market",
    "city": "Cameron Park",
    "County": "El Dorado",
    "State": "California",
    "lat": 38.6577,
    "lng": -120.9726,
    "Website": "http://www.eldoradofarmersmarket.com"
  },
  {
    "FMID": 1007356,
    "MarketName": "Campbell Farmers' Market",
    "city": "Campbell",
    "County": "Santa Clara",
    "State": "California",
    "lat": 37.2871,
    "lng": -121.944,
    "Website": "http://www.urbanvillageonline.com/"
  },
  {
    "FMID": 1012548,
    "MarketName": "Cannon Beach Farmers Market",
    "city": "Cannon Beach",
    "County": "Clatsop",
    "State": "Oregon",
    "lat": 45.8898,
    "lng": -123.9608,
    "Website": "http://Cannon Beach Market.org"
  },
  {
    "FMID": 1012038,
    "MarketName": "Canoga Park Certified Farmers Market",
    "city": "canoga park",
    "County": "Los Angeles",
    "State": "California",
    "lat": 34.2037,
    "lng": -118.6016,
    "Website": "http://coastalpacificinfo.us"
  },
  {
    "FMID": 1012636,
    "MarketName": "Canterbury Community Farmers Market Association",
    "city": "Canterbury",
    "County": "Merrimack",
    "State": "New Hampshire",
    "lat": 43.3383,
    "lng": -71.5655,
    "Website": "http://www.ccfma.net"
  },
  {
    "FMID": 1009677,
    "MarketName": "Canton Farmers Market and Heritage Crafts",
    "city": "Canton",
    "County": "Haywood",
    "State": "North Carolina",
    "lat": 35.532,
    "lng": -82.8409,
    "Website": "http://focusofcanton.com/farmers-market-canton-nc.html"
  },
  {
    "FMID": 1005325,
    "MarketName": "Cape Ann Farmers Market",
    "city": "Gloucester",
    "County": "Essex",
    "State": "Massachusetts",
    "lat": 42.6126,
    "lng": -70.6658,
    "Website": "http://www.capeannfarmersmarket.org"
  },
  {
    "FMID": 1005326,
    "MarketName": "Cape Ann Farmers Market",
    "city": "Gloucester",
    "County": "Essex",
    "State": "Massachusetts",
    "lat": 42.6057,
    "lng": -70.6775,
    "Website": "http://www.capeannfarmersmarket.org"
  },
  {
    "FMID": 1018068,
    "MarketName": "Cape Coral Farmers' Market",
    "city": "Cape Coral",
    "County": "Lee",
    "State": "Florida",
    "lat": 26.5637,
    "lng": -81.9525,
    "Website": "http://www.CapeCoralFarmersMarket.com"
  },
  {
    "FMID": 1011930,
    "MarketName": "Capital City Farmers Market",
    "city": "Dover",
    "County": "Kent",
    "State": "Delaware",
    "lat": 39.1577,
    "lng": -75.5262,
    "Website": "http://www.downtowndoverpartnership.com/"
  },
  {
    "FMID": 1004165,
    "MarketName": "Capitol Hill Farmers Market",
    "city": "Seattle",
    "County": "King",
    "State": "Washington",
    "lat": 47.6156,
    "lng": -122.3127,
    "Website": "http://www.seattlefarmersmarkets.org"
  },
  {
    "FMID": 1018375,
    "MarketName": "Captiva Island Farmers Market at South Seas Resort",
    "city": "Captiva Island",
    "County": "Lee",
    "State": "Florida",
    "lat": 26.5252,
    "lng": -82.1906,
    "Website": "http://BuyLocalLee.com"
  },
  {
    "FMID": 1006857,
    "MarketName": "Carbondale Community Friday Night Fair",
    "city": "Carbondale",
    "County": "Jackson",
    "State": "Illinois",
    "lat": 37.7274,
    "lng": -89.2167,
    "Website": "http://www.carbondalemainstreet.com"
  },
  {
    "FMID": 1003292,
    "MarketName": "Carbondale Farmers Market",
    "city": "Carbondale",
    "County": "Garfield",
    "State": "Colorado",
    "lat": 39.4,
    "lng": -107.2113,
    "Website": "http://www.carbondalefarmersmarket.com/"
  },
  {
    "FMID": 1011167,
    "MarketName": "Carbondale Farmers' Market",
    "city": "Carbondale",
    "County": "Jackson",
    "State": "Illinois",
    "lat": 37.7302,
    "lng": -89.2434
  },
  {
    "FMID": 1012654,
    "MarketName": "Carefree Farmers Market",
    "city": "Carefree",
    "County": "Maricopa",
    "State": "Arizona",
    "lat": 33.8247,
    "lng": -111.9218,
    "Website": "http://www.arizonacommunityfarmersmarkets.com/FM_Carefree.html"
  },
  {
    "FMID": 1011204,
    "MarketName": "Carencro Cultural District Farmers Market",
    "city": "Carencro",
    "County": "Lafayette",
    "State": "Louisiana",
    "lat": 30.3173,
    "lng": -92.0469
  },
  {
    "FMID": 1008450,
    "MarketName": "Carmel Farmers Markets at the Barnyard Shopping Village",
    "city": "Carmel",
    "County": "Monterey",
    "State": "California",
    "lat": 36.9873,
    "lng": -121.927,
    "Website": "http://www.montereybayfarmers.org"
  },
  {
    "FMID": 1006651,
    "MarketName": "Carnation Farmers Market",
    "city": "Carnation",
    "County": "King",
    "State": "Washington",
    "lat": 47.6486,
    "lng": -121.9124,
    "Website": "http://www.carnationfarmersmarket.org"
  },
  {
    "FMID": 1012028,
    "MarketName": "Carolina Forest Farmers Market",
    "city": "Myrtle Beach",
    "County": "Horry",
    "State": "South Carolina",
    "lat": 33.7602,
    "lng": -78.9601,
    "Website": "http://waccamawmarkets.org/"
  },
  {
    "FMID": 1006021,
    "MarketName": "Carroll Gardens Greenmarket",
    "city": "Brookyn",
    "County": "Kings",
    "State": "New York",
    "lat": 40.6807,
    "lng": -73.9954,
    "Website": "http://www.grownyc.org/greenmarket/brooklyn/carroll-gardens"
  },
  {
    "FMID": 1004415,
    "MarketName": "Carson City Saturday",
    "city": "Carson City",
    "County": "Carson City",
    "State": "Nevada",
    "lat": 39.1626,
    "lng": -119.7678,
    "Website": "http://www.carsonfarmersmarket.com"
  },
  {
    "FMID": 1012093,
    "MarketName": "Carver Farmers Market",
    "city": "Carver",
    "County": "Plymouth",
    "State": "Massachusetts",
    "lat": 41.8889,
    "lng": -70.7692
  },
  {
    "FMID": 1011460,
    "MarketName": "Castro Certified Farmers' Market",
    "city": "San Francisco",
    "County": "San Francisco",
    "State": "California",
    "lat": 37.7644,
    "lng": -122.4331,
    "Website": "http://pcfma.org"
  },
  {
    "FMID": 1007358,
    "MarketName": "Castro Valley Farmers' Market",
    "city": "Castro Valley",
    "County": "Alameda",
    "State": "California",
    "lat": 37.6926,
    "lng": -122.0739,
    "Website": "http://www.urbanvillage@earthlink.net"
  },
  {
    "FMID": 1010399,
    "MarketName": "Central Market York",
    "city": "York",
    "County": "York",
    "State": "Pennsylvania",
    "lat": 39.9635,
    "lng": -76.7295,
    "Website": "http://Centralmarketyork.com"
  },
  {
    "FMID": 1001831,
    "MarketName": "Central Valley Farmers Market",
    "city": "Merced",
    "County": "Merced",
    "State": "California",
    "lat": 37.2906,
    "lng": -120.4805
  },
  {
    "FMID": 1001832,
    "MarketName": "Central Valley Farmers Market",
    "city": "Atwater",
    "County": "Merced",
    "State": "California",
    "lat": 37.3538,
    "lng": -120.6299
  },
  {
    "FMID": 1010147,
    "MarketName": "Cerritos Farmers Market",
    "city": "Cerritos",
    "County": "Los Angeles",
    "State": "California",
    "lat": 33.8693,
    "lng": -118.0625,
    "Website": "http://www.goodveg.org"
  },
  {
    "FMID": 1011833,
    "MarketName": "Certified Arkansas Farmers Market Argenta",
    "city": "North Little Rock",
    "County": "Pulaski",
    "State": "Arkansas",
    "lat": 34.7591,
    "lng": -92.2676,
    "Website": "http://www.certifiedarkansasfarmersmarket.com"
  },
  {
    "FMID": 1012789,
    "MarketName": "Charles Town Farmers Market",
    "city": "Charles Town",
    "County": "Jefferson",
    "State": "West Virginia",
    "lat": 39.2889,
    "lng": -77.8582
  },
  {
    "FMID": 1018335,
    "MarketName": "Charleston Farmers Market",
    "city": "Charleston",
    "County": "Charleston",
    "State": "South Carolina",
    "lat": 32.7869,
    "lng": -79.9357,
    "Website": "http://CharlestonFarmersMarket.com"
  },
  {
    "FMID": 1005148,
    "MarketName": "Charlestown Farmers Market",
    "city": "Lake Charles",
    "County": "Calcasieu",
    "State": "Louisiana",
    "lat": 30.2264,
    "lng": -93.2177,
    "Website": "http://www.charlestownfarmersmarket.com"
  },
  {
    "FMID": 1005149,
    "MarketName": "Charlestown Farmers Market",
    "city": "Lake Charles",
    "County": "Calcasieu",
    "State": "Louisiana",
    "lat": 30.1722,
    "lng": -93.2504,
    "Website": "http://www.charlestownfarmersmarket.com"
  },
  {
    "FMID": 1018015,
    "MarketName": "Charlestown Land Trust Farmers' Market",
    "city": "Charlestown",
    "County": "Washington",
    "State": "Rhode Island",
    "lat": 41.3849,
    "lng": -71.6301,
    "Website": "http://www.charlestownlandtrust.org"
  },
  {
    "FMID": 1004271,
    "MarketName": "Charlevoix Farmers Market",
    "city": "Charlevoix",
    "County": "Charlevoix",
    "State": "Michigan",
    "lat": 45.3164,
    "lng": -85.2584,
    "Website": "http://www.charlevoixmainstreet.org"
  },
  {
    "FMID": 1010687,
    "MarketName": "Charlotte Harbor Farmers Market",
    "city": "Charlotte Harbor",
    "County": "Charlotte",
    "State": "Florida",
    "lat": 26.9565,
    "lng": -82.0798
  },
  {
    "FMID": 1012019,
    "MarketName": "Charlottesville City Market",
    "city": "Charlottesville",
    "County": "Albemarle",
    "State": "Virginia",
    "lat": 38.0296,
    "lng": -78.4817,
    "Website": "http://www.charlottesville.org/departments-and-services/departments-h-z/parks-recreation-/city-market"
  },
  {
    "FMID": 1005834,
    "MarketName": "Chatham Farmer's Market",
    "city": "Chatham",
    "County": "Barnstable",
    "State": "Massachusetts",
    "lat": 41.6785,
    "lng": -70.0205
  },
  {
    "FMID": 1000626,
    "MarketName": "Chatham Mills Farmers' Market",
    "city": "Pittsboro",
    "County": "Chatham",
    "State": "North Carolina",
    "lat": 35.727,
    "lng": -79.1759,
    "Website": "http://www.chathammillsfarmersmarket.com"
  },
  {
    "FMID": 1011537,
    "MarketName": "Chattanooga Market",
    "city": "Chattanooga",
    "County": "Hamilton",
    "State": "Tennessee",
    "lat": 35.037,
    "lng": -85.3174,
    "Website": "http://chattanoogamarket.com"
  },
  {
    "FMID": 1004463,
    "MarketName": "Chelmsford Agway Winter Farmers' Market",
    "city": "Chelmsford",
    "County": "Middlesex",
    "State": "Massachusetts",
    "lat": 42.5713,
    "lng": -71.3806,
    "Website": "http://chelmsfordagwayfarmersmarket.blogspot.com/"
  },
  {
    "FMID": 1009894,
    "MarketName": "Chelsea's Down to Earth Farmers Market",
    "city": "New York",
    "County": "New York",
    "State": "New York",
    "lat": 40.7463,
    "lng": -74.0008,
    "Website": "http://downtoearthmarkets.com/markets?region=Manhattan&market=Chelsea+Farmers+Market"
  },
  {
    "FMID": 1006636,
    "MarketName": "Cherry Street Farmers Market",
    "city": "Tulsa",
    "County": "Tulsa",
    "State": "Oklahoma",
    "lat": 36.1381,
    "lng": -95.9734,
    "Website": "https://www.cherrystreetfarmersmarket.com"
  },
  {
    "FMID": 1018731,
    "MarketName": "Chester Farmers & Artisans Market",
    "city": "Chesster",
    "County": "Chester",
    "State": "South Carolina",
    "lat": 34.704,
    "lng": -81.2136,
    "Website": "http://www.chestersc.org"
  },
  {
    "FMID": 1005515,
    "MarketName": "Chester Farmers Market",
    "city": "Chester",
    "County": "Morris",
    "State": "New Jersey",
    "lat": 40.784,
    "lng": -74.6966,
    "Website": "http://www.chesternjfarmersmarket.org"
  },
  {
    "FMID": 1008606,
    "MarketName": "Chesterfield County Farmers Market",
    "city": "Chesterfield",
    "County": "Chesterfield",
    "State": "Virginia",
    "lat": 37.3767,
    "lng": -77.5044
  },
  {
    "FMID": 1000944,
    "MarketName": "Chestertown Farmer's Market",
    "city": "Chestertown",
    "County": "Warren",
    "State": "New York",
    "lat": 43.6487,
    "lng": -73.8051,
    "Website": "http://www.chestertownfarmersmarket.com"
  },
  {
    "FMID": 1002874,
    "MarketName": "Cheverly Community Market",
    "city": "Cheverly",
    "County": "Prince George's",
    "State": "Maryland",
    "lat": 38.9241,
    "lng": -76.9063,
    "Website": "http://www.cheverlycommunitymarket.com"
  },
  {
    "FMID": 1010203,
    "MarketName": "Cheyenne Farmers Market",
    "city": "Cheyenne",
    "County": "Laramie",
    "State": "Wyoming",
    "lat": 41.1322,
    "lng": -104.8144,
    "Website": "http://www.calc.net"
  },
  {
    "FMID": 1003524,
    "MarketName": "Cheyenne Winter Farmers' Market",
    "city": "Cheyenne",
    "County": "Laramie",
    "State": "Wyoming",
    "lat": 41.132,
    "lng": -104.8142
  },
  {
    "FMID": 1004401,
    "MarketName": "Chicago Street Farmers Market",
    "city": "Foley",
    "County": "Baldwin",
    "State": "Alabama",
    "lat": 30.4071,
    "lng": -87.6833,
    "Website": "http://www.visitfoley.org"
  },
  {
    "FMID": 1012379,
    "MarketName": "Chicago-Nettelhorst French Market",
    "city": "Chicago",
    "County": "Cook",
    "State": "Illinois",
    "lat": 41.9412,
    "lng": -87.6446,
    "Website": "http://www.bensidounmidwestmarkets.com/"
  },
  {
    "FMID": 1000877,
    "MarketName": "Chincoteague Island Farmers Market",
    "city": "Chincoteague",
    "County": "Accomack",
    "State": "Virginia",
    "lat": 37.9328,
    "lng": -75.3734,
    "Website": "http://www.chincoteagueculturalalliance.org"
  },
  {
    "FMID": 1004051,
    "MarketName": "City Hall Plaza Farmer's Market",
    "city": "Nashua",
    "County": "Hillsborough",
    "State": "New Hampshire",
    "lat": 42.7582,
    "lng": -71.4647,
    "Website": "http://www.downtownnashua.org/?page_id=58"
  },
  {
    "FMID": 1018577,
    "MarketName": "City Market",
    "city": "Bay City",
    "County": "Bay",
    "State": "Michigan",
    "lat": 43.5983,
    "lng": -83.8863,
    "Website": "http://www.citymarketbc.com"
  },
  {
    "FMID": 1008616,
    "MarketName": "City of Barnwell Farmers' Market",
    "city": "Barnwell",
    "County": "Barnwell",
    "State": "South Carolina",
    "lat": 33.2437,
    "lng": -81.3761,
    "Website": "http://www.cityofbarnwell.com"
  },
  {
    "FMID": 1001680,
    "MarketName": "City of Grayling Farm Market",
    "city": "Grayling",
    "County": "Crawford",
    "State": "Michigan",
    "lat": 44.6658,
    "lng": -84.7093,
    "Website": "http://www.cityofgrayling.org"
  },
  {
    "FMID": 1001681,
    "MarketName": "City of Grayling Farm Market",
    "city": "Grayling",
    "County": "Crawford",
    "State": "Michigan",
    "lat": 44.6624,
    "lng": -84.7159,
    "Website": "http://www.cityofgrayling.org"
  },
  {
    "FMID": 1005491,
    "MarketName": "City of Lake Forest Farmers Market",
    "city": "Lake Forest",
    "County": "Lake",
    "State": "Illinois",
    "lat": 42.2523,
    "lng": -87.8394,
    "Website": "http://www.cityoflakeforest.com"
  },
  {
    "FMID": 1018182,
    "MarketName": "City of Rochester Public Market",
    "city": "Rochester",
    "County": "Monroe",
    "State": "New York",
    "lat": 43.1656,
    "lng": -77.5897,
    "Website": "http://www.cityofrochester.gov/publicmarket"
  },
  {
    "FMID": 1006460,
    "MarketName": "City of White Bear Lake Farmer's Market",
    "city": "White Bear Lake",
    "County": "Ramsey",
    "State": "Minnesota",
    "lat": 45.0852,
    "lng": -93.009,
    "Website": "http://www.whitebearlake.org"
  },
  {
    "FMID": 1011036,
    "MarketName": "Clairemont Certified Farmers Market at Madison High School",
    "city": "San Diego",
    "County": "San Diego",
    "State": "California",
    "lat": 32.8296,
    "lng": -117.1755,
    "Website": "http://www.ClairemontFarmersMarket.com"
  },
  {
    "FMID": 1002106,
    "MarketName": "Claremont Farmers & Artisans Market",
    "city": "Claremont",
    "County": "Los Angeles",
    "State": "California",
    "lat": 34.0956,
    "lng": -117.719,
    "Website": "http://www.claremontforum.org"
  },
  {
    "FMID": 1000406,
    "MarketName": "Clark Fork Market",
    "city": "Missoula",
    "County": "Missoula",
    "State": "Montana",
    "lat": 46.8787,
    "lng": -113.9966,
    "Website": "http://www.clarkforkmarket.com"
  },
  {
    "FMID": 1012527,
    "MarketName": "Clement St. Farmers Market",
    "city": "San Francisco",
    "County": "San Francisco",
    "State": "California",
    "lat": 37.7831,
    "lng": -122.461,
    "Website": "http://www.agriculturalinstitute.org"
  },
  {
    "FMID": 1018338,
    "MarketName": "Clintonville Farmers' Market",
    "city": "Columbus",
    "County": "Franklin",
    "State": "Ohio",
    "lat": 40.0343,
    "lng": -83.0166,
    "Website": "http://www.clintonvillefarmersmarket.org"
  },
  {
    "FMID": 1001740,
    "MarketName": "Coastal Growers Farmers Market",
    "city": "North Kingstown",
    "County": "Washington",
    "State": "Rhode Island",
    "lat": 41.5729,
    "lng": -71.4854,
    "Website": "http://www.coastalmarket.org"
  },
  {
    "FMID": 1018004,
    "MarketName": "Coastal Growers Farmers Market",
    "city": "Saunderstown",
    "County": "Washington",
    "State": "Rhode Island",
    "lat": 41.5121,
    "lng": -71.4235,
    "Website": "http://www.coastalmarket.org"
  },
  {
    "FMID": 1018163,
    "MarketName": "Coastside Farmers' Market - Half Moon Bay",
    "city": "Half Moon Bay",
    "County": "San Mateo",
    "State": "California",
    "lat": 37.4656,
    "lng": -122.4329,
    "Website": "http://www.coastsidefarmersmarket.org"
  },
  {
    "FMID": 1018173,
    "MarketName": "Coastside Farmers' Market - Rockaway Beach, Pacifica",
    "city": "Pacifica",
    "County": "San Mateo",
    "State": "California",
    "lat": 37.6093,
    "lng": -122.4952,
    "Website": "http://www.coastsidefarmersmarket.org"
  },
  {
    "FMID": 1010515,
    "MarketName": "Coconut Point Farmers Market",
    "city": "Estero",
    "County": "Lee",
    "State": "Florida",
    "lat": 26.4048,
    "lng": -81.8092,
    "Website": "http://BuyLocalLee.com"
  },
  {
    "FMID": 1002563,
    "MarketName": "Codman Square Farmers Market",
    "city": "Dorchester",
    "County": "Suffolk",
    "State": "Massachusetts",
    "lat": 42.2902,
    "lng": -71.0716,
    "Website": "https://codmancouncil.wordpress.com/codman-square-farmers-market/"
  },
  {
    "FMID": 1011495,
    "MarketName": "College of San Mateo Certified Farmers' Market",
    "city": "San Mateo",
    "County": "San Mateo",
    "State": "California",
    "lat": 37.5331,
    "lng": -122.3378,
    "Website": "http://pcfma.org"
  },
  {
    "FMID": 1002316,
    "MarketName": "Colleton Farmers Market",
    "city": "Walterboro",
    "County": "Colleton",
    "State": "South Carolina",
    "lat": 32.9036,
    "lng": -80.6609,
    "Website": "http://www.colletonmuseum.com/farmersmarket.aspx"
  },
  {
    "FMID": 1003470,
    "MarketName": "Collierville Farmers Market",
    "city": "Collierville",
    "County": "Shelby",
    "State": "Tennessee",
    "lat": 35.0461,
    "lng": -89.677,
    "Website": "http://www.colliervillefarmersmarket.org"
  },
  {
    "FMID": 1010977,
    "MarketName": "Colonial Beach Farmers Market",
    "city": "Colonial Beach",
    "County": "Westmoreland",
    "State": "Virginia",
    "lat": 38.2508,
    "lng": -76.9633,
    "Website": "http://growrva.com/"
  },
  {
    "FMID": 1018007,
    "MarketName": "Colonial Heights Farmer's Market",
    "city": "Colonial Heights",
    "County": "Colonial Heights",
    "State": "Virginia",
    "lat": 37.2657,
    "lng": -77.412
  },
  {
    "FMID": 1000210,
    "MarketName": "Colorado Farm and Art Market",
    "city": "Colorado Springs",
    "County": "El Paso",
    "State": "Colorado",
    "lat": 38.9377,
    "lng": -104.8147,
    "Website": "http://www.farmandartmarket.com"
  },
  {
    "FMID": 1009656,
    "MarketName": "Colorado Farm and Art Market",
    "city": "Colorado Springs",
    "County": "El Paso",
    "State": "Colorado",
    "lat": 38.8305,
    "lng": -104.8223,
    "Website": "http://www.farmandartmarket.com"
  },
  {
    "FMID": 1004166,
    "MarketName": "Columbia City Farmers Market",
    "city": "Seattle",
    "County": "King",
    "State": "Washington",
    "lat": 47.5587,
    "lng": -122.2862,
    "Website": "http://www.seattlefarmersmarkets.org"
  },
  {
    "FMID": 1018196,
    "MarketName": "Columbia Farmers Fresh Market",
    "city": "Columbia",
    "County": "Maury",
    "State": "Tennessee",
    "lat": 35.6188,
    "lng": -87.0305,
    "Website": "http://columbiafarmersfreshmarket.com/"
  },
  {
    "FMID": 1011224,
    "MarketName": "Columbia Heights Farmers Market",
    "city": "Washington",
    "County": "District of Columbia",
    "State": "District of Columbia",
    "lat": 38.9302,
    "lng": -77.0327,
    "Website": "http://www.community-foodworks.org/"
  },
  {
    "FMID": 1008316,
    "MarketName": "Columbia Pike Farmers Market",
    "city": "Arlington",
    "County": "Arlington",
    "State": "Virginia",
    "lat": 38.8624,
    "lng": -77.0866,
    "Website": "http://www.columbiapike.org"
  },
  {
    "FMID": 1000068,
    "MarketName": "Columbia University Greenmarket",
    "city": "New York",
    "County": "New York",
    "State": "New York",
    "lat": 40.8073,
    "lng": -73.9644,
    "Website": "http://www.grownyc.org"
  },
  {
    "FMID": 1006811,
    "MarketName": "Columbia-Pacific Farmer's Market",
    "city": "Long Beach",
    "County": "Pacific",
    "State": "Washington",
    "lat": 46.3501,
    "lng": -124.054,
    "Website": "http://www.longbeachwa.gov/farmersmarket/"
  },
  {
    "FMID": 1007015,
    "MarketName": "columbus farmers market",
    "city": "Columbus",
    "County": "Burlington",
    "State": "New Jersey",
    "lat": 40.0554,
    "lng": -74.7251
  },
  {
    "FMID": 1018738,
    "MarketName": "Columbus Farmers Market",
    "city": "Columbus",
    "County": "Bartholomew",
    "State": "Indiana",
    "lat": 39.2036,
    "lng": -85.9239,
    "Website": "http://www.columbusfarmersmarket.org/"
  },
  {
    "FMID": 1012754,
    "MarketName": "Community Congregational Farmers Market",
    "city": "Naples",
    "County": "Collier",
    "State": "Florida",
    "lat": 26.3099,
    "lng": -81.8043,
    "Website": "http://www. 41markets.com"
  },
  {
    "FMID": 1012415,
    "MarketName": "Community Farmers Market Bowling Green",
    "city": "Bowling Green",
    "County": "Warren",
    "State": "Kentucky",
    "lat": 36.9658,
    "lng": -86.4658,
    "Website": "http://www.communityfarmersmarketbg.com/"
  },
  {
    "FMID": 1001329,
    "MarketName": "Community Farmers Market of Boynton Beach",
    "city": "Boynton Beach",
    "County": "Palm Beach",
    "State": "Florida",
    "lat": 26.5284,
    "lng": -80.058,
    "Website": "http://www.communityfarmersmarketsofsouthflorida.com"
  },
  {
    "FMID": 1001331,
    "MarketName": "Community Farmers Market of Plantation",
    "city": "Plantation",
    "County": "Broward",
    "State": "Florida",
    "lat": 26.1459,
    "lng": -80.3059
  },
  {
    "FMID": 1001330,
    "MarketName": "Community Farmers Market of Tamarac",
    "city": "Tamarac",
    "County": "Broward",
    "State": "Florida",
    "lat": 26.2289,
    "lng": -80.2528
  },
  {
    "FMID": 1009853,
    "MarketName": "Community Market of Blacksburg",
    "city": "Blacksburg",
    "County": "Montgomery",
    "State": "Virginia",
    "lat": 37.2158,
    "lng": -80.4002,
    "Website": "http://www.thecommunityfarmersmarket.com"
  },
  {
    "FMID": 1010233,
    "MarketName": "Compton Blue Line Farmers Market",
    "city": "Compton",
    "County": "Los Angeles",
    "State": "California",
    "lat": 33.8979,
    "lng": -118.224
  },
  {
    "FMID": 1011785,
    "MarketName": "Concord Farmers Market Association",
    "city": "Concord",
    "County": "Merrimack",
    "State": "New Hampshire",
    "lat": 43.2065,
    "lng": -71.5384,
    "Website": "http://www.concordfarmersmarket.com"
  },
  {
    "FMID": 1002749,
    "MarketName": "Condon Community Farmers Market",
    "city": "Condon",
    "County": "Gilliam",
    "State": "Oregon",
    "lat": 45.2326,
    "lng": -120.1847,
    "Website": "http://www.condonchamber.org/CondonCommunityFarmersMarket.htm"
  },
  {
    "FMID": 1018320,
    "MarketName": "Contoocook Farmers' Market",
    "city": "Contoocook",
    "County": "Merrimack",
    "State": "New Hampshire",
    "lat": 43.2227,
    "lng": -71.7131
  },
  {
    "FMID": 1012030,
    "MarketName": "Conway Farmers Market",
    "city": "Conway",
    "County": "Horry",
    "State": "South Carolina",
    "lat": 33.8343,
    "lng": -79.047,
    "Website": "http://waccamawmarkets.org/"
  },
  {
    "FMID": 1018277,
    "MarketName": "Cooperstown Farmers' Market",
    "city": "Cooperstown",
    "County": "Otsego",
    "State": "New York",
    "lat": 42.7001,
    "lng": -74.9253,
    "Website": "http://www.CooperstownFarmersMarket.org"
  },
  {
    "FMID": 1006766,
    "MarketName": "Coos Bay Downtown Farmer's Market",
    "city": "Coos Bay",
    "County": "Coos",
    "State": "Oregon",
    "lat": 43.368,
    "lng": -124.2153,
    "Website": "http://www.coosbaydowntown.org"
  },
  {
    "FMID": 1012476,
    "MarketName": "Copley Square Farmers Market",
    "city": "Boston",
    "County": "Suffolk",
    "State": "Massachusetts",
    "lat": 42.35,
    "lng": -71.0764,
    "Website": "http://www.massfarmersmarkets.org"
  },
  {
    "FMID": 1000158,
    "MarketName": "Coppell Farmers Market",
    "city": "Coppell",
    "County": "Dallas",
    "State": "Texas",
    "lat": 32.9529,
    "lng": -97.007,
    "Website": "http://www.coppellfarmersmarket.org"
  },
  {
    "FMID": 1005372,
    "MarketName": "Coral Gables Farmers Market",
    "city": "Coral Gables",
    "County": "Miami-Dade",
    "State": "Florida",
    "lat": 25.749,
    "lng": -80.2632,
    "Website": "http://www.gablesrecreation.com"
  },
  {
    "FMID": 1000899,
    "MarketName": "Coral Gables Museum Market on the Plaza",
    "city": "Coral Gables",
    "County": "Miami-Dade",
    "State": "Florida",
    "lat": 25.7505,
    "lng": -80.2604,
    "Website": "http://www.coralgablesmuseum.org"
  },
  {
    "FMID": 1009614,
    "MarketName": "Corey Avenue Sunday Fresh Market",
    "city": "St Petersburg",
    "County": "Pinellas",
    "State": "Florida",
    "lat": 27.7416,
    "lng": -82.751,
    "Website": "http://www.CoreySundayMarket.com"
  },
  {
    "FMID": 1005779,
    "MarketName": "Corey Fresh Market",
    "city": "St. Pete Beach",
    "County": "Pinellas",
    "State": "Florida",
    "lat": 27.7424,
    "lng": -82.7495,
    "Website": "http://www.coreyave.com"
  },
  {
    "FMID": 1010366,
    "MarketName": "Corn Crib Main Street Market",
    "city": "Mount Joy",
    "County": "Lancaster",
    "State": "Pennsylvania",
    "lat": 40.1105,
    "lng": -76.5053
  },
  {
    "FMID": 1009650,
    "MarketName": "Corpus Christi Downtown Farmers' Market",
    "city": "Corpus Christi",
    "County": "Nueces",
    "State": "Texas",
    "lat": 27.7967,
    "lng": -97.3952,
    "Website": "http://www.ccdowntownfm.com/"
  },
  {
    "FMID": 1003758,
    "MarketName": "Corpus Christi Southside Farmers' Market",
    "city": "Corpus Christi",
    "County": "Nueces",
    "State": "Texas",
    "lat": 27.7028,
    "lng": -97.3914,
    "Website": "http://www.farmersmarketcc.org"
  },
  {
    "FMID": 1012808,
    "MarketName": "Corte Bella Farmers Market",
    "city": "Peoria",
    "County": "Maricopa",
    "State": "Arizona",
    "lat": 33.6831,
    "lng": -112.3422,
    "Website": "http://www.azFarmersMarkets.US"
  },
  {
    "FMID": 1000103,
    "MarketName": "Cortelyou Greenmarket",
    "city": "Brooklyn",
    "County": "Kings",
    "State": "New York",
    "lat": 40.6408,
    "lng": -73.9653
  },
  {
    "FMID": 1009760,
    "MarketName": "Corvallis Farmers' Market",
    "city": "Corvallis",
    "County": "Benton",
    "State": "Oregon",
    "lat": 44.5648,
    "lng": -123.2582,
    "Website": "http://www.locallygrown.org"
  },
  {
    "FMID": 1005600,
    "MarketName": "Costa Mesa Certified Farmers' Market",
    "city": "Costa Mesa",
    "County": "Orange",
    "State": "California",
    "lat": 33.6656,
    "lng": -117.906,
    "Website": "http://www.orange.cfbf.com"
  },
  {
    "FMID": 1000368,
    "MarketName": "Country Lane Farmers Market",
    "city": "Barron",
    "County": "Barron",
    "State": "Wisconsin",
    "lat": 45.4438,
    "lng": -91.8285
  },
  {
    "FMID": 1018559,
    "MarketName": "Coupeville Farmers Market",
    "city": "Coupeville",
    "County": "Island",
    "State": "Washington",
    "lat": 48.2193,
    "lng": -122.6892
  },
  {
    "FMID": 1007304,
    "MarketName": "Coventry Regional Farmers' Market",
    "city": "Coventry",
    "County": "Tolland",
    "State": "Connecticut",
    "lat": 41.7641,
    "lng": -72.3457,
    "Website": "http://www.coventryfarmersmarket.com"
  },
  {
    "FMID": 1009841,
    "MarketName": "Creole Market",
    "city": "New Iberia",
    "County": "Iberia",
    "State": "Louisiana",
    "lat": 30.0157,
    "lng": -91.8337
  },
  {
    "FMID": 1000264,
    "MarketName": "Crescent City Farmers Market",
    "city": "New Orleans",
    "County": "Orleans",
    "State": "Louisiana",
    "lat": 29.9767,
    "lng": -90.0919,
    "Website": "http://www.crescentcityfarmersmarket.org"
  },
  {
    "FMID": 1000265,
    "MarketName": "Crescent City Farmers Market",
    "city": "New Orleans",
    "County": "Orleans",
    "State": "Louisiana",
    "lat": 29.9466,
    "lng": -90.0687,
    "Website": "http://www.crescentcityfarmersmarket.org"
  },
  {
    "FMID": 1012106,
    "MarketName": "Crescent City Farmers Market",
    "city": "New Orleans",
    "County": "Orleans",
    "State": "Louisiana",
    "lat": 29.9605,
    "lng": -90.0585,
    "Website": "http://www.crescentcityfarmersmarket.org/"
  },
  {
    "FMID": 1018548,
    "MarketName": "Crescent City Farmers Market - Uptown",
    "city": "New Orleans",
    "County": "Orleans",
    "State": "Louisiana",
    "lat": 29.9322,
    "lng": -90.1333,
    "Website": "http://www.marketumbrella.org"
  },
  {
    "FMID": 1018700,
    "MarketName": "Crescent Ridge Farmers Market",
    "city": "Sharon",
    "County": "Norfolk",
    "State": "Massachusetts",
    "lat": 42.1175,
    "lng": -71.186,
    "Website": "http://www.crescentridgefarmersmarket.com"
  },
  {
    "FMID": 1005035,
    "MarketName": "Crested Butte Farmers Market",
    "city": "Crested Butte",
    "County": "Gunnison",
    "State": "Colorado",
    "lat": 38.8698,
    "lng": -106.9875,
    "Website": "http://www.cbfarmersmarket.org"
  },
  {
    "FMID": 1008666,
    "MarketName": "Crisp! Mobile Farmers Market",
    "city": "Chicago",
    "County": "Cook",
    "State": "Illinois",
    "lat": 41.8952,
    "lng": -87.6324,
    "Website": "http://www.crispgrocery.com"
  },
  {
    "FMID": 1012748,
    "MarketName": "Crofton Farmers Market",
    "city": "Crofton",
    "County": "Anne Arundel",
    "State": "Maryland",
    "lat": 39.0047,
    "lng": -76.6968,
    "Website": "http://www.croftonfarmersmarket.com"
  },
  {
    "FMID": 1011308,
    "MarketName": "Cromwell Farmers Market",
    "city": "Cromwell",
    "County": "Middlesex",
    "State": "Connecticut",
    "lat": 41.5849,
    "lng": -72.6456,
    "Website": "http://www.cromwellfarmersmerkate.org"
  },
  {
    "FMID": 1018745,
    "MarketName": "Crooked Creek Farmers Market",
    "city": "Indianapolis",
    "County": "Marion",
    "State": "Indiana",
    "lat": 39.8854,
    "lng": -86.2119,
    "Website": "http://www.crookedcreekcdc.org/farmers-market"
  },
  {
    "FMID": 1012365,
    "MarketName": "Crossroads Farmers Market",
    "city": "Takoma Park",
    "County": "Montgomery",
    "State": "Maryland",
    "lat": 38.9905,
    "lng": -76.9902,
    "Website": "https://www.crossroadscommunityfoodnetwork.org/farmers-market/"
  },
  {
    "FMID": 1004447,
    "MarketName": "Crosstown Freeway Farmers' Market",
    "city": "Stockton",
    "County": "San Joaquin",
    "State": "California",
    "lat": 37.9509,
    "lng": -121.2872,
    "Website": "http://www.stocktonfarmersmarket.org"
  },
  {
    "FMID": 1001869,
    "MarketName": "Crystal Lake Farmers Market",
    "city": "Crystal Lake",
    "County": "McHenry",
    "State": "Illinois",
    "lat": 42.2438,
    "lng": -88.317,
    "Website": "http://www.downtowncl.org"
  },
  {
    "FMID": 1001717,
    "MarketName": "Dale City Farmers Market",
    "city": "Dale City",
    "County": "Prince William",
    "State": "Virginia",
    "lat": 38.6471,
    "lng": -77.3411,
    "Website": "http://www.pwcparks.org/farmersmarket/"
  },
  {
    "FMID": 1012749,
    "MarketName": "Dallas Farmers Market",
    "city": "Dallas",
    "County": "Dallas",
    "State": "Texas",
    "lat": 32.7776,
    "lng": -96.7894,
    "Website": "http://www.dallasfarmersmarket.org"
  },
  {
    "FMID": 1002739,
    "MarketName": "Daly City Certified Farmers' Market at Serramonte Center",
    "city": "Daly City",
    "County": "San Mateo",
    "State": "California",
    "lat": 37.6743,
    "lng": -122.4704,
    "Website": "http://www.cafarmersmkts.com/markets/category/daly-city"
  },
  {
    "FMID": 1012115,
    "MarketName": "Damariscotta Farmers Market",
    "city": "Damariscotta",
    "County": "Lincoln",
    "State": "Maine",
    "lat": 44.0388,
    "lng": -69.5132,
    "Website": "http://www.damariscottafarmersmarket.org"
  },
  {
    "FMID": 1018383,
    "MarketName": "Damascus Farmers Market",
    "city": "Damascus",
    "County": "Clackamas",
    "State": "Oregon",
    "lat": 45.4172,
    "lng": -122.4556,
    "Website": "http://damascusfarmersmarket.org/home.aspx"
  },
  {
    "FMID": 1004516,
    "MarketName": "Danbury Farmers' Market",
    "city": "Danbury",
    "County": "Fairfield",
    "State": "Connecticut",
    "lat": 41.3964,
    "lng": -73.4554,
    "Website": "http://www.danburyfarmersmarket.org"
  },
  {
    "FMID": 1005176,
    "MarketName": "Dane County Farmers Market - Holiday Market",
    "city": "Madison",
    "County": "Dane",
    "State": "Wisconsin",
    "lat": 43.0714,
    "lng": -89.3803,
    "Website": "http://www.dcfm.org"
  },
  {
    "FMID": 1005177,
    "MarketName": "Dane County Farmers Market - Wednesday Market",
    "city": "Madison",
    "County": "Dane",
    "State": "Wisconsin",
    "lat": 43.0728,
    "lng": -89.3818,
    "Website": "http://www.dcfm.org"
  },
  {
    "FMID": 1005175,
    "MarketName": "Dane County Farmers Market - Winter Market",
    "city": "Madison",
    "County": "Dane",
    "State": "Wisconsin",
    "lat": 43.0731,
    "lng": -89.3896
  },
  {
    "FMID": 1005178,
    "MarketName": "Dane County Farmers Market I",
    "city": "Madison",
    "County": "Dane",
    "State": "Wisconsin",
    "lat": 43.0746,
    "lng": -89.3843,
    "Website": "http://www.dcfm.org"
  },
  {
    "FMID": 1011974,
    "MarketName": "Danvers Farmers Market",
    "city": "Danvers",
    "County": "Essex",
    "State": "Massachusetts",
    "lat": 42.5632,
    "lng": -70.9384,
    "Website": "http://www.danversfarmersmarket.org/"
  },
  {
    "FMID": 1011345,
    "MarketName": "Danville Farmers' Market",
    "city": "Danville",
    "County": "Contra Costa",
    "State": "California",
    "lat": 37.8211,
    "lng": -122.0006,
    "Website": "http://www.pcfma.org"
  },
  {
    "FMID": 1008435,
    "MarketName": "Davenport Farmers Market",
    "city": "Davenport",
    "County": "Thayer",
    "State": "Nebraska",
    "lat": 40.3129,
    "lng": -97.8145
  },
  {
    "FMID": 1018500,
    "MarketName": "Davis Farmers Market",
    "city": "Davis",
    "County": "Yolo",
    "State": "California",
    "lat": 38.5442,
    "lng": -121.7436,
    "Website": "http://www.davisfarmersmarket.org"
  },
  {
    "FMID": 1011946,
    "MarketName": "Daytona Beach Downtown Farmers' Market",
    "city": "Daytona Beach",
    "County": "Volusia",
    "State": "Florida",
    "lat": 29.2108,
    "lng": -81.0166,
    "Website": "http://www.riverfrontshopsofdaytona.com/daytona-beach-downtown-farmers-market/"
  },
  {
    "FMID": 1008296,
    "MarketName": "Dedham Farmers Market",
    "city": "Dedham",
    "County": "Norfolk",
    "State": "Massachusetts",
    "lat": 42.249,
    "lng": -71.1772,
    "Website": "http://www.dedhamfarmersmarket.org"
  },
  {
    "FMID": 1018154,
    "MarketName": "Deerfield Beach Farmer's Market",
    "city": "Deerfield Beach",
    "County": "Broward",
    "State": "Florida",
    "lat": 26.3181,
    "lng": -80.098,
    "Website": "http://www.deerfield-history.org"
  },
  {
    "FMID": 1002536,
    "MarketName": "Del Monte Farmers Markets at Del Monte Shopping Center",
    "city": "Monterey",
    "County": "Monterey",
    "State": "California",
    "lat": 36.9873,
    "lng": -121.927,
    "Website": "http://www.montereybayfarmers.org"
  },
  {
    "FMID": 1018416,
    "MarketName": "Delcambre Seafood & Farmers Market",
    "city": "Delcambre",
    "County": "Iberia",
    "State": "Louisiana",
    "lat": 29.9417,
    "lng": -91.9825,
    "Website": "http://www.DelcambreMarket.org"
  },
  {
    "FMID": 1002914,
    "MarketName": "Delray Green Market",
    "city": "Delray Beach",
    "County": "Palm Beach",
    "State": "Florida",
    "lat": 26.4625,
    "lng": -80.0716,
    "Website": "http://www.delraygreenmarket.com"
  },
  {
    "FMID": 1003126,
    "MarketName": "Denio's Farmers Market",
    "city": "Roseville",
    "County": "Placer",
    "State": "California",
    "lat": 38.7416,
    "lng": -121.3031,
    "Website": "http://www.deniosmarket.com"
  },
  {
    "FMID": 1004069,
    "MarketName": "Denver Urban Homesteading Farmers Market",
    "city": "Denver",
    "County": "Denver",
    "State": "Colorado",
    "lat": 39.7195,
    "lng": -104.9983,
    "Website": "http://www.denverurbanhomesteading.com"
  },
  {
    "FMID": 1007255,
    "MarketName": "Des Moines Waterfront Farmers Market",
    "city": "Des Moines",
    "County": "King",
    "State": "Washington",
    "lat": 47.4017,
    "lng": -122.3293,
    "Website": "http://www.DMFM.org"
  },
  {
    "FMID": 1012167,
    "MarketName": "Dewey Square Farmers Market",
    "city": "Boston",
    "County": "Middlesex",
    "State": "Massachusetts",
    "lat": 42.3529,
    "lng": -71.0555,
    "Website": "https://bostonpublicmarket.org/"
  },
  {
    "FMID": 1002740,
    "MarketName": "Diablo Valley Certified Farmers' Market",
    "city": "Walnut Creek",
    "County": "Contra Costa",
    "State": "California",
    "lat": 37.928,
    "lng": -122.0275,
    "Website": "http://www.cafarmersmkts.com/markets/category/diablo-valley"
  },
  {
    "FMID": 1001118,
    "MarketName": "Dillon Farmers' Market",
    "city": "Dillon",
    "County": "Summit",
    "State": "Colorado",
    "lat": 38.9973,
    "lng": -105.548
  },
  {
    "FMID": 1011426,
    "MarketName": "Divisadero Certified Farmers' Market",
    "city": "San Francisco",
    "County": "San Francisco",
    "State": "California",
    "lat": 37.7759,
    "lng": -122.438,
    "Website": "http://pcfma.org"
  },
  {
    "FMID": 1006582,
    "MarketName": "Divisidero Certified Farmers' Market",
    "city": "San Francisco",
    "County": "San Francisco",
    "State": "California",
    "lat": 37.776,
    "lng": -122.4385,
    "Website": "http://www.pcfma.com/market_home.php?market_id=63"
  },
  {
    "FMID": 1004217,
    "MarketName": "Dixboro Farmers' Market",
    "city": "Ann Arbor",
    "County": "Washtenaw",
    "State": "Michigan",
    "lat": 42.3125,
    "lng": -83.6563,
    "Website": "http://www.dixborofarmersmarket.org"
  },
  {
    "FMID": 1010285,
    "MarketName": "Dorchester Winter Farmers' Market",
    "city": "Dorchester",
    "County": "Suffolk",
    "State": "Massachusetts",
    "lat": 42.2901,
    "lng": -71.0719,
    "Website": "http://www.dotcomcoop.wordpress.com"
  },
  {
    "FMID": 1010834,
    "MarketName": "Douglass Loop Farmers' Market",
    "city": "Louisville",
    "County": "Jefferson",
    "State": "Kentucky",
    "lat": 38.2255,
    "lng": -85.6943,
    "Website": "http://www.douglassloopfarmersmarket.com"
  },
  {
    "FMID": 1016793,
    "MarketName": "Down to Earth Mamaroneck Winter Farmers Market",
    "city": "Mamaroneck",
    "County": "Westchester",
    "State": "New York",
    "lat": 40.9477,
    "lng": -73.7345,
    "Website": "http://www.downtoearthmarkets.com"
  },
  {
    "FMID": 1010972,
    "MarketName": "Down to Earth Morningside Park Farmers Market",
    "city": "Manhattan",
    "County": "New York",
    "State": "New York",
    "lat": 40.8014,
    "lng": -73.9596,
    "Website": "http://www.downtoearthmarkets.com"
  },
  {
    "FMID": 1016792,
    "MarketName": "Down to Earth Ossining Winter Farmers Market",
    "city": "Ossining",
    "County": "Westchester",
    "State": "New York",
    "lat": 41.1601,
    "lng": -73.8613,
    "Website": "http://www.downtoearthmarkets.com"
  },
  {
    "FMID": 1009895,
    "MarketName": "Down to Earth Park Slope Farmers Market",
    "city": "Brooklyn",
    "County": "Kings",
    "State": "New York",
    "lat": 40.6722,
    "lng": -73.9838,
    "Website": "http://www.downtoearthmarkets.com"
  },
  {
    "FMID": 1010455,
    "MarketName": "Downtown Anaheim Certified Farmers Market",
    "city": "Anaheim",
    "County": "Orange",
    "State": "California",
    "lat": 33.8339,
    "lng": -117.9155,
    "Website": "http://www.anaheimfarmersmarkets.com"
  },
  {
    "FMID": 1000432,
    "MarketName": "Downtown Appleton Indoor Winter Farm Market",
    "city": "Appleton",
    "County": "Outagamie",
    "State": "Wisconsin",
    "lat": 44.2625,
    "lng": -88.4061,
    "Website": "http://www.appletondowntown.org"
  },
  {
    "FMID": 1003643,
    "MarketName": "Downtown Beloit Farmer's Market",
    "city": "Beloit",
    "County": "Rock",
    "State": "Wisconsin",
    "lat": 42.4997,
    "lng": -89.0355,
    "Website": "http://www.downtownbeloit.com"
  },
  {
    "FMID": 1001026,
    "MarketName": "Downtown Berkeley Farmers' Market",
    "city": "Berkeley",
    "County": "Alameda",
    "State": "California",
    "lat": 37.8697,
    "lng": -122.2728,
    "Website": "http://ecologycenter.org/fm"
  },
  {
    "FMID": 1000769,
    "MarketName": "Downtown Burlington Farmers Market",
    "city": "Burlington",
    "County": "Racine",
    "State": "Wisconsin",
    "lat": 42.6785,
    "lng": -88.2761,
    "Website": "http://www.burlingtonwifarmersmarket.com"
  },
  {
    "FMID": 1000589,
    "MarketName": "Downtown Clermont Farmer's Market",
    "city": "Clermont",
    "County": "Lake",
    "State": "Florida",
    "lat": 28.5549,
    "lng": -81.7678,
    "Website": "http://www.clermontdowntownpartnership.org"
  },
  {
    "FMID": 1002400,
    "MarketName": "Downtown Farmers Market",
    "city": "Murray",
    "County": "Calloway",
    "State": "Kentucky",
    "lat": 36.6099,
    "lng": -88.3025,
    "Website": "http://www.murraymainstreet.org"
  },
  {
    "FMID": 1002184,
    "MarketName": "Downtown Farmers Market at Riverside",
    "city": "Riverside",
    "County": "Riverside",
    "State": "California",
    "lat": 33.9849,
    "lng": -117.3725,
    "Website": "http://www.riversideca.gov/arts/farmers-market.asp"
  },
  {
    "FMID": 1010854,
    "MarketName": "Downtown Farmers' Market",
    "city": "Duluth",
    "County": "St. Louis",
    "State": "Minnesota",
    "lat": 46.7869,
    "lng": -92.0982,
    "Website": "http://www.downtownduluth.com"
  },
  {
    "FMID": 1012608,
    "MarketName": "Downtown Farmers' Market - Des Moines",
    "city": "Des Moines",
    "County": "Polk",
    "State": "Iowa",
    "lat": 41.5853,
    "lng": -93.6204,
    "Website": "http://www.desmoinesfarmersmarket.com/"
  },
  {
    "FMID": 1006081,
    "MarketName": "Downtown Farmers' Market of Fort Pierce, Inc.",
    "city": "fort pierce",
    "County": "St. Lucie",
    "State": "Florida",
    "lat": 27.4489,
    "lng": -80.3217,
    "Website": "http://www.fortpiercefarmersmarket.com/"
  },
  {
    "FMID": 1012243,
    "MarketName": "Downtown Fond du Lac Farmers Market - Saturday",
    "city": "Fond du Lac",
    "County": "Fond du Lac",
    "State": "Wisconsin",
    "lat": 43.7754,
    "lng": -88.447,
    "Website": "http://www.downtownfdl.com/farmers-market.html"
  },
  {
    "FMID": 1004884,
    "MarketName": "Downtown Gaylord Farmers Market",
    "city": "Gaylord",
    "County": "Otsego",
    "State": "Michigan",
    "lat": 45.0274,
    "lng": -84.6759
  },
  {
    "FMID": 1010525,
    "MarketName": "Downtown Green Bay Farmers Market",
    "city": "Green Bay",
    "County": "Brown",
    "State": "Wisconsin",
    "lat": 44.5131,
    "lng": -88.017,
    "Website": "http://www.downtowngreenbay.com"
  },
  {
    "FMID": 1001128,
    "MarketName": "Downtown Houma Farmers, Fishermen and Artisans Market",
    "city": "Houma",
    "County": "Terrebonne",
    "State": "Louisiana",
    "lat": 29.6086,
    "lng": -90.7437
  },
  {
    "FMID": 1001809,
    "MarketName": "Downtown Laramie Farmer's market",
    "city": "Laramie",
    "County": "Albany",
    "State": "Wyoming",
    "lat": 41.3111,
    "lng": -105.5944,
    "Website": "http://www.farmersmarketlaramie.com/"
  },
  {
    "FMID": 1010225,
    "MarketName": "Downtown Market Grand Rapids",
    "city": "Grand Rapids",
    "County": "Kent",
    "State": "Michigan",
    "lat": 42.9545,
    "lng": -85.6708,
    "Website": "http://downtownmarketgr.com/"
  },
  {
    "FMID": 1018621,
    "MarketName": "Downtown Novato Community Farmers Market",
    "city": "Novato",
    "County": "Marin",
    "State": "California",
    "lat": 38.1081,
    "lng": -122.5732,
    "Website": "http://www.communityfarmersmarkets.com"
  },
  {
    "FMID": 1005804,
    "MarketName": "Downtown Petoskey Farmers Market",
    "city": "Petoskey",
    "County": "Emmet",
    "State": "Michigan",
    "lat": 45.3733,
    "lng": -84.9555,
    "Website": "http://www.petoskey.com"
  },
  {
    "FMID": 1008258,
    "MarketName": "Downtown Pittsfield Farmers Market",
    "city": "Pittsfield",
    "County": "Berkshire",
    "State": "Massachusetts",
    "lat": 42.4512,
    "lng": -73.2504,
    "Website": "http://www.farmersmarketpittsfield.org"
  },
  {
    "FMID": 1011441,
    "MarketName": "Downtown San Jose Farmers' Market",
    "city": "San Jose",
    "County": "Santa Clara",
    "State": "California",
    "lat": 37.3351,
    "lng": -121.8929,
    "Website": "http://www.pcfma.org"
  },
  {
    "FMID": 1010301,
    "MarketName": "Downtown West Bend Farmers' Market",
    "city": "West Bend",
    "County": "Washington",
    "State": "Wisconsin",
    "lat": 43.4249,
    "lng": -88.1833,
    "Website": "http://www.downtownwestbend.com"
  },
  {
    "FMID": 1008646,
    "MarketName": "Dr. Phillips Farmers Market",
    "city": "Orlando",
    "County": "Orange",
    "State": "Florida",
    "lat": 28.4594,
    "lng": -81.4939,
    "Website": "http://www.drphillipsfarmersmarket.com"
  },
  {
    "FMID": 1005358,
    "MarketName": "Dublin",
    "city": "Dublin",
    "County": "Alameda",
    "State": "California",
    "lat": 37.7105,
    "lng": -121.8738,
    "Website": "http://www.pcfma.com"
  },
  {
    "FMID": 1009977,
    "MarketName": "Dublin Farmers' Market",
    "city": "Dublin",
    "County": "Franklin",
    "State": "Ohio",
    "lat": 40.099,
    "lng": -83.1035,
    "Website": "http://www.dublinfarmersmarket.com"
  },
  {
    "FMID": 1005197,
    "MarketName": "Dubuque Farmers Market",
    "city": "Dubuque",
    "County": "Dubuque",
    "State": "Iowa",
    "lat": 42.505,
    "lng": -90.668,
    "Website": "http://www.DubuqueFarmersMarket.org"
  },
  {
    "FMID": 1004646,
    "MarketName": "Durham Farmers' Market",
    "city": "Durham",
    "County": "Middlesex",
    "State": "Connecticut",
    "lat": 41.4704,
    "lng": -72.6806,
    "Website": "http://www.durhamfarmersmarket.org"
  },
  {
    "FMID": 1009830,
    "MarketName": "Durham Farmers' Market",
    "city": "Durham",
    "County": "Rockingham",
    "State": "New Hampshire",
    "lat": 43.1366,
    "lng": -70.9107,
    "Website": "http://www.seacoastgrowers.org"
  },
  {
    "FMID": 1018350,
    "MarketName": "Dutch Country Farmer's Market",
    "city": "Middletown",
    "County": "New Castle",
    "State": "Delaware",
    "lat": 39.4584,
    "lng": -75.7173,
    "Website": "http://www.delawarefarmersmarket.com"
  },
  {
    "FMID": 1005953,
    "MarketName": "Eagan Market Fest",
    "city": "Eagan",
    "County": "Dakota",
    "State": "Minnesota",
    "lat": 44.8399,
    "lng": -93.1739,
    "Website": "http://www.cityofeagan.com/marketfest"
  },
  {
    "FMID": 1004475,
    "MarketName": "Easley Farmers Market",
    "city": "Easley",
    "County": "Pickens",
    "State": "South Carolina",
    "lat": 34.8303,
    "lng": -82.605,
    "Website": "http://www.easleyfarmersmarket.com"
  },
  {
    "FMID": 1018222,
    "MarketName": "East Asheville Tailgate Market",
    "city": "Asheville",
    "County": "Buncombe",
    "State": "North Carolina",
    "lat": 35.5898,
    "lng": -82.5001,
    "Website": "http://eastashevilletailgatemarket@gmail.com"
  },
  {
    "FMID": 1012407,
    "MarketName": "East Boston Farmers Market",
    "city": "East Boston",
    "County": "Suffolk",
    "State": "Massachusetts",
    "lat": 42.3687,
    "lng": -71.0398,
    "Website": "http://www.ebnhc.org/en/food-access/farmers-market.html"
  },
  {
    "FMID": 1012086,
    "MarketName": "East Coast Indoor Farmers Market",
    "city": "Millsboro",
    "County": "Sussex",
    "State": "Delaware",
    "lat": 38.6162,
    "lng": -75.2181,
    "Website": "http://www.eastcoastgardencenter.com/farmers-market.html"
  },
  {
    "FMID": 1011673,
    "MarketName": "East End Market",
    "city": "Houston",
    "County": "Harris",
    "State": "Texas",
    "lat": 29.7575,
    "lng": -95.343,
    "Website": "http://eastendfoundation.org"
  },
  {
    "FMID": 1004708,
    "MarketName": "East Greenwich Farmers Market",
    "city": "East Greenwich",
    "County": "Kent",
    "State": "Rhode Island",
    "lat": 41.6609,
    "lng": -71.4536,
    "Website": "http://www.eastgreenwichfarmersmarket.com"
  },
  {
    "FMID": 1012383,
    "MarketName": "East Hampton Farmers Market LLC",
    "city": "East Hampton",
    "County": "Suffolk",
    "State": "New York",
    "lat": 40.9724,
    "lng": -72.1807
  },
  {
    "FMID": 1010847,
    "MarketName": "East Jordan Farmers Market",
    "city": "East Jordan",
    "County": "Charlevoix",
    "State": "Michigan",
    "lat": 45.1528,
    "lng": -85.1305
  },
  {
    "FMID": 1002933,
    "MarketName": "East Lake Farmers Market",
    "city": "Atlanta",
    "County": "DeKalb",
    "State": "Georgia",
    "lat": 33.751,
    "lng": -84.3104,
    "Website": "http://www.elfmarket.org"
  },
  {
    "FMID": 1018332,
    "MarketName": "East Lansing Farmer's Market",
    "city": "East Lansing",
    "County": "Ingham",
    "State": "Michigan",
    "lat": 42.7372,
    "lng": -84.4875,
    "Website": "https://www.cityofeastlansing.com/farmersmarket"
  },
  {
    "FMID": 1010324,
    "MarketName": "East Sacramento Farmer's Market",
    "city": "Sacramento",
    "County": "Sacramento",
    "State": "California",
    "lat": 38.5761,
    "lng": -121.4579,
    "Website": "http://www.eastsacfarmersmarket.com"
  },
  {
    "FMID": 1008871,
    "MarketName": "Eastern Market",
    "city": "Detroit",
    "County": "Wayne",
    "State": "Michigan",
    "lat": 42.3468,
    "lng": -83.0401,
    "Website": "http://www.easternmarket.com"
  },
  {
    "FMID": 1001570,
    "MarketName": "Eau Claire Downtown Farmers Market",
    "city": "Eau Claire",
    "County": "Eau Claire",
    "State": "Wisconsin",
    "lat": 44.8153,
    "lng": -91.5048,
    "Website": "http://www.ecdowntownfarmersmarket.com"
  },
  {
    "FMID": 1012783,
    "MarketName": "Edenton Farmers Market",
    "city": "Edenton",
    "County": "Chowan",
    "State": "North Carolina",
    "lat": 36.07,
    "lng": -76.6074,
    "Website": "http://www.edentonfarmersmarket.com"
  },
  {
    "FMID": 1012160,
    "MarketName": "Edmonds Museum Summer Market",
    "city": "Edmonds",
    "County": "Snohomish",
    "State": "Washington",
    "lat": 47.8114,
    "lng": -122.3767,
    "Website": "http:// www.historicedmonds.org/summer-market"
  },
  {
    "FMID": 1001298,
    "MarketName": "Edwards CO Farmers' Market",
    "city": "Edwards",
    "County": "Eagle",
    "State": "Colorado",
    "lat": 39.644,
    "lng": -106.5941,
    "Website": "http://www.edwardsfarmersmarket.com"
  },
  {
    "FMID": 1012067,
    "MarketName": "Egleston Farmers Market",
    "city": "Jamaica Plain",
    "County": "Suffolk",
    "State": "Massachusetts",
    "lat": 42.3143,
    "lng": -71.1032,
    "Website": "http://Eglestonfarmersmarket.org"
  },
  {
    "FMID": 1012664,
    "MarketName": "El Centro de Laredo Farmers Market",
    "city": "Laredo",
    "County": "Webb",
    "State": "Texas",
    "lat": 27.5053,
    "lng": -99.5087,
    "Website": "http://laredomainstreet.org/"
  },
  {
    "FMID": 1003777,
    "MarketName": "El Dorado Hills, Thursday Farmers Market",
    "city": "El Dorado Hills",
    "County": "El Dorado",
    "State": "California",
    "lat": 38.6835,
    "lng": -121.0755,
    "Website": "http://www.eldoradofarmersmarket.com"
  },
  {
    "FMID": 1012294,
    "MarketName": "Elaney Wood Heritage Farmers Market",
    "city": "Snow Hill",
    "County": "Greene",
    "State": "North Carolina",
    "lat": 35.4564,
    "lng": -77.6926,
    "Website": "http://http//www.greene.ces.ncsu.edu"
  },
  {
    "FMID": 1000022,
    "MarketName": "Elizabeth Avenue Farmers Market",
    "city": "Charlotte",
    "County": "Mecklenburg",
    "State": "North Carolina",
    "lat": 35.2144,
    "lng": -80.827,
    "Website": "http://www.elizabethavefarmersmarket.com"
  },
  {
    "FMID": 1006151,
    "MarketName": "Elk Rapids Area Chamber of Commerce Farmers Market",
    "city": "Elk Rapids",
    "County": "Antrim",
    "State": "Michigan",
    "lat": 44.8964,
    "lng": -85.4096,
    "Website": "http://www.elkrapidschamber.org"
  },
  {
    "FMID": 1012332,
    "MarketName": "Ellington Farmers Market",
    "city": "Ellington",
    "County": "Tolland",
    "State": "Connecticut",
    "lat": 41.9033,
    "lng": -72.4652
  },
  {
    "FMID": 1012050,
    "MarketName": "Ellington Winter Farmers' Market",
    "city": "Ellington",
    "County": "Tolland",
    "State": "Connecticut",
    "lat": 41.8698,
    "lng": -72.4904,
    "Website": "http://www.ellingtonfarmersmarket.com/"
  },
  {
    "FMID": 1003828,
    "MarketName": "Ellsworth Farmers Market",
    "city": "Ellsworth",
    "County": "Hancock",
    "State": "Maine",
    "lat": 44.5422,
    "lng": -68.4228,
    "Website": "http://www.ellsworthfarmersmarket.com"
  },
  {
    "FMID": 1018717,
    "MarketName": "Elm Street Market",
    "city": "West Newton",
    "County": "Middlesex",
    "State": "Massachusetts",
    "lat": 42.3509,
    "lng": -71.2304
  },
  {
    "FMID": 1012045,
    "MarketName": "Encino Farmers Market",
    "city": "Van Nuys",
    "County": "Los Angeles",
    "State": "California",
    "lat": 34.1862,
    "lng": -118.5129
  },
  {
    "FMID": 1002302,
    "MarketName": "Escondido Certified Farmers' Market",
    "city": "Escondido",
    "County": "San Diego",
    "State": "California",
    "lat": 33.1231,
    "lng": -117.079,
    "Website": "http://www.downtownescondido.com"
  },
  {
    "FMID": 1009864,
    "MarketName": "Essex Farmers Market",
    "city": "Essex",
    "County": "Essex",
    "State": "Massachusetts",
    "lat": 42.6319,
    "lng": -70.7818,
    "Website": "http://www.essexfarmersmarket.com"
  },
  {
    "FMID": 1003568,
    "MarketName": "Estacada Farmers Market",
    "city": "Estacada",
    "County": "Clackamas",
    "State": "Oregon",
    "lat": 45.2879,
    "lng": -122.335,
    "Website": "http://www.estacadafarmersmarket.com"
  },
  {
    "FMID": 1012809,
    "MarketName": "Estrella Lakeside Market",
    "city": "Goodyear, AZ",
    "County": "Maricopa",
    "State": "Arizona",
    "lat": 33.3529,
    "lng": -112.4295,
    "Website": "http://www.azFarmersMarkets.US"
  },
  {
    "FMID": 1000410,
    "MarketName": "Eureka Springs Farmers Market",
    "city": "Eureka Springs",
    "County": "Carroll",
    "State": "Arkansas",
    "lat": 36.3916,
    "lng": -93.7317,
    "Website": "http://www.eurekaspringsfarmersmarket.com"
  },
  {
    "FMID": 1010418,
    "MarketName": "Everett Farmers Market",
    "city": "Everett",
    "County": "Middlesex",
    "State": "Massachusetts",
    "lat": 42.4102,
    "lng": -71.0528,
    "Website": "http://everettfarmersmarket.wordpress.com"
  },
  {
    "FMID": 1003357,
    "MarketName": "Everett Farmers Market LLC",
    "city": "Everett",
    "County": "Snohomish",
    "State": "Washington",
    "lat": 48.0002,
    "lng": -122.222,
    "Website": "http://www.everettfarmersmarket.net"
  },
  {
    "FMID": 1001957,
    "MarketName": "Evergreen Farmers Market at Bergen Village",
    "city": "Evergreen",
    "County": "Jefferson",
    "State": "Colorado",
    "lat": 39.6333,
    "lng": -105.3172,
    "Website": "http://www.coloradooutdoormarkets.com"
  },
  {
    "FMID": 1004422,
    "MarketName": "Excelsior Farmers' Market",
    "city": "Excelsior",
    "County": "Hennepin",
    "State": "Minnesota",
    "lat": 44.9011,
    "lng": -93.5706,
    "Website": "http://www.excelsiorfarmersmarket.com"
  },
  {
    "FMID": 1007798,
    "MarketName": "Exeter Farmers Market",
    "city": "Exeter",
    "County": "Rockingham",
    "State": "New Hampshire",
    "lat": 42.9836,
    "lng": -70.9501,
    "Website": "http://www.seacoastgrowers.org"
  },
  {
    "FMID": 1012801,
    "MarketName": "F.A.R.M. (Farmer's Atlanta Road Market)",
    "city": "Smyrna",
    "County": "Cobb",
    "State": "Georgia",
    "lat": 33.8506,
    "lng": -84.4941,
    "Website": "http://www.FARMSmyrna.com"
  },
  {
    "FMID": 1018622,
    "MarketName": "Fairfax Community Farmers' Market",
    "city": "Fairfax",
    "County": "Marin",
    "State": "California",
    "lat": 37.9857,
    "lng": -122.59,
    "Website": "http://www.communityfarmersmarkets.com"
  },
  {
    "FMID": 1002517,
    "MarketName": "Fairhaven Winter Farmers' Market",
    "city": "Fairhaven",
    "County": "Bristol",
    "State": "Massachusetts",
    "lat": 41.6421,
    "lng": -70.903,
    "Website": "http://www.greenfairhaven.com"
  },