[
  {
    "FMID": 1018261,
    "MarketName": "Caledonia Farmers Market Association - Danville",
    "city": "Danville",
    "County": "Caledonia",
    "State": "Vermont",
    "lat": 44.411,
    "lng": -72.1403,
    "Website": "https://sites.google.com/site/caledoniafarmersmarket/"
  },
  {
    "FMID": 1011100,
    "MarketName": "12 South Farmers Market",
    "city": "Nashville",
    "County": "Davidson",
    "State": "Tennessee",
    "lat": 36.1184,
    "lng": -86.7907,
    "Website": "http://www.12southfarmersmarket.com"
  },
  {
    "FMID": 1012710,
    "MarketName": "14th & Kennedy Street Farmers Market",
    "city": "Washington",
    "County": "District of Columbia",
    "State": "District of Columbia",
    "lat": 38.956,
    "lng": -77.0334
  },
  {
    "FMID": 1012790,
    "MarketName": "19/27 Community Farmers Market",
    "city": "Chiefland",
    "County": "Levy",
    "State": "Florida",
    "lat": 29.4849,
    "lng": -82.8579
  },
  {
    "FMID": 1010994,
    "MarketName": "2nd Street Farmers' Market",
    "city": "Amherst",
    "County": "Amherst",
    "State": "Virginia",
    "lat": 37.5833,
    "lng": -79.0486,
    "Website": "http://secondstageAmherst.org"
  },
  {
    "FMID": 1009959,
    "MarketName": "2nd Street Market - Five Rivers MetroPark",
    "city": "Dayton",
    "County": "Montgomery",
    "State": "Ohio",
    "lat": 39.7626,
    "lng": -84.181,
    "Website": "http://www.metroparks.org"
  },
  {
    "FMID": 1004950,
    "MarketName": "3 French Hens French Country Market",
    "city": "Morris",
    "County": "Grundy",
    "State": "Illinois",
    "lat": 41.3564,
    "lng": -88.4252,
    "Website": "http://www.3frenchhensmarket.blogspot.com"
  },
  {
    "FMID": 1010775,
    "MarketName": "30A Farmers' Market",
    "city": "Rosemary Beach",
    "County": "Walton",
    "State": "Florida",
    "lat": 30.279,
    "lng": -86.0028
  },
  {
    "FMID": 1018389,
    "MarketName": "38th & Meridian Farmer's Market",
    "city": "Indianapolis",
    "County": "Marion",
    "State": "Indiana",
    "lat": 39.8256,
    "lng": -86.1575
  },
  {
    "FMID": 1012280,
    "MarketName": "39 North Marketplace",
    "city": "Sparks",
    "County": "Washoe",
    "State": "Nevada",
    "lat": 39.5348,
    "lng": -119.755,
    "Website": "http://www.39northdowntown.com"
  },
  {
    "FMID": 1000986,
    "MarketName": "9th West Farmers Market/People's Market",
    "city": "SALT LAKE CITY",
    "County": "Salt Lake",
    "State": "Utah",
    "lat": 40.747,
    "lng": -111.9195,
    "Website": "http://www.9thwestfarmersmarket.org"
  },
  {
    "FMID": 1010487,
    "MarketName": "Abingdon Farmers Market",
    "city": "Abingdon",
    "County": "Washington",
    "State": "Virginia",
    "lat": 36.7089,
    "lng": -81.9771,
    "Website": "http://www.abingdonfarmersmarket.com"
  },
  {
    "FMID": 1011180,
    "MarketName": "Acreage Green Market",
    "city": "Loxahatchee",
    "County": "Palm Beach",
    "State": "Florida",
    "lat": 26.7756,
    "lng": -80.2634,
    "Website": "http://Www.AcreageGreenMarket.com"
  },
  {
    "FMID": 1018003,
    "MarketName": "Acushnet Farmers Market",
    "city": "Acushnet",
    "County": "Bristol",
    "State": "Massachusetts",
    "lat": 41.7201,
    "lng": -70.9009,
    "Website": "http://www.acushnetfarmersmarket.com"
  },
  {
    "FMID": 1001083,
    "MarketName": "Ada Farmers' Market",
    "city": "Ada",
    "County": "Kent",
    "State": "Michigan",
    "lat": 42.9554,
    "lng": -85.489,
    "Website": "http://www.adafarmersmarket.com"
  },
  {
    "FMID": 1010354,
    "MarketName": "Adams Farmers' & Artisans' Market",
    "city": "Adams",
    "County": "Berkshire",
    "State": "Massachusetts",
    "lat": 42.6245,
    "lng": -73.118
  },
  {
    "FMID": 1008054,
    "MarketName": "Airport Farmers and Flea Market",
    "city": "Brooksville",
    "County": "Hernando",
    "State": "Florida",
    "lat": 28.4811,
    "lng": -82.4411
  },
  {
    "FMID": 1011967,
    "MarketName": "Akers of Strawberries",
    "city": "Baker",
    "County": "Okaloosa",
    "State": "Florida",
    "lat": 30.7987,
    "lng": -86.7013,
    "Website": "http://Www.akersofstrawberries.com"
  },
  {
    "FMID": 1018304,
    "MarketName": "Alamo Heights Farmers Market",
    "city": "San Antonio",
    "County": "Bexar",
    "State": "Texas",
    "lat": 29.4933,
    "lng": -98.4812
  },
  {
    "FMID": 1011033,
    "MarketName": "Alamogordo Farmers' Market in Alameda Park",
    "city": "Alamogordo",
    "County": "Otero",
    "State": "New Mexico",
    "lat": 32.9141,
    "lng": -105.961,
    "Website": "https://www.localharvest.org/alamogordo-farmers-market-in-alameda-park-M37997"
  },
  {
    "FMID": 1002175,
    "MarketName": "Albany Farmers' Market",
    "city": "Albany",
    "County": "Linn",
    "State": "Oregon",
    "lat": 44.6349,
    "lng": -123.1061,
    "Website": "http://www.locallygrown.org"
  },
  {
    "FMID": 1010407,
    "MarketName": "Albuquerque Downtown Growers' Market",
    "city": "Albuquerque",
    "County": "Bernalillo",
    "State": "New Mexico",
    "lat": 35.086,
    "lng": -106.6569,
    "Website": "http://DowntownGrowers.com"
  },
  {
    "FMID": 1011910,
    "MarketName": "Aledo Farmers Market",
    "city": "Aledo",
    "County": "Parker",
    "State": "Texas",
    "lat": 32.6965,
    "lng": -97.6026,
    "Website": "http://www.aledo-texas.com"
  },
  {
    "FMID": 1012389,
    "MarketName": "Aloha Community Farmers' Market",
    "city": "Aloha",
    "County": "Washington",
    "State": "Oregon",
    "lat": 45.4821,
    "lng": -122.8605,
    "Website": "http://www.alohacommunityfarmersmarket.org"
  },
  {
    "FMID": 1005644,
    "MarketName": "Amador Farmers' Market-- Jackson",
    "city": "Jackson",
    "County": "Amador",
    "State": "California",
    "lat": 38.3488,
    "lng": -120.7741,
    "Website": "http://www.amadorfarmersmarket.com"
  },
  {
    "FMID": 1005645,
    "MarketName": "Amador Farmers' Market-- Pine Grove",
    "city": "Pine Grove",
    "County": "Amador",
    "State": "California",
    "lat": 38.3488,
    "lng": -120.7741,
    "Website": "http://www.amadorfarmersmarket.com"
  },
  {
    "FMID": 1008321,
    "MarketName": "Amelia Barter Town Farmers Market",
    "city": "Amelia Court House",
    "County": "Amelia",
    "State": "Virginia",
    "lat": 37.3426,
    "lng": -77.9805,
    "Website": "http://www.Ameliamarket.org"
  },
  {
    "FMID": 1009833,
    "MarketName": "Amherst Winter Farmers' Market",
    "city": "Amherst",
    "County": "Hampshire",
    "State": "Massachusetts",
    "lat": 42.3849,
    "lng": -72.5111,
    "Website": "http://www.amherstwintermarket.com"
  },
  {
    "FMID": 1005944,
    "MarketName": "Anacortes Farmers Market",
    "city": "Anacortes",
    "County": "Skagit",
    "State": "Washington",
    "lat": 48.517,
    "lng": -122.6092,
    "Website": "http://www.anacortesfarmersmarket.org"
  },
  {
    "FMID": 1018744,
    "MarketName": "Anderson City Market",
    "city": "Anderson",
    "County": "Madison",
    "State": "Indiana",
    "lat": 40.1111,
    "lng": -85.6691,
    "Website": "http://www.ppchog.org/acm"
  },
  {
    "FMID": 1004991,
    "MarketName": "Anderson Farmers' Market",
    "city": "Cincinnati",
    "County": "Hamilton",
    "State": "Ohio",
    "lat": 39.0785,
    "lng": -84.3506,
    "Website": "http://www.andersonfarmersmarket.org"
  },
  {
    "FMID": 1006378,
    "MarketName": "Angelica Farmers' Market",
    "city": "Angelica",
    "County": "Allegany",
    "State": "New York",
    "lat": 42.3061,
    "lng": -78.016,
    "Website": "http://www.localharvest.org/angelica-farmers-market-M23451"
  },
  {
    "FMID": 1010280,
    "MarketName": "Angelina County Farmers Market",
    "city": "Lufkin",
    "County": "Angelina",
    "State": "Texas",
    "lat": 31.3211,
    "lng": -94.6977,
    "Website": "http://visitlufkin.com/ShopDine/FarmersMarket/"
  },
  {
    "FMID": 1010223,
    "MarketName": "Ann Arbor Farmers Market",
    "city": "Ann Arbor",
    "County": "Washtenaw",
    "State": "Michigan",
    "lat": 42.2838,
    "lng": -83.7467,
    "Website": "http://www.a2gov.org/market"
  },
  {
    "FMID": 1001142,
    "MarketName": "Anne Arundel County Farmers' Market  (Riva)",
    "city": "Annapolis",
    "County": "Anne Arundel",
    "State": "Maryland",
    "lat": 38.9763,
    "lng": -76.5556,
    "Website": "http://www.aacofarmersmarket.com/"
  },
  {
    "FMID": 1012651,
    "MarketName": "Anthem Farmers Market",
    "city": "Anthem",
    "County": "Maricopa",
    "State": "Arizona",
    "lat": 33.863,
    "lng": -112.1363,
    "Website": "http://www.arizonacommunityfarmersmarkets.com/FM_Anthem.html"
  },
  {
    "FMID": 1011109,
    "MarketName": "Apex Farmers Market",
    "city": "Apex",
    "County": "Wake",
    "State": "North Carolina",
    "lat": 35.732,
    "lng": -78.8499,
    "Website": "http://www.apexfarmersmarket.com"
  },
  {
    "FMID": 1001018,
    "MarketName": "Arkansas Local Food Network Online Farmers Market",
    "city": "Little Rock",
    "County": "Pulaski",
    "State": "Arkansas",
    "lat": 34.7431,
    "lng": -92.2696,
    "Website": "http://www.littlerock.locallygrown.net"
  },
  {
    "FMID": 1008236,
    "MarketName": "Arlington Farmers Market",
    "city": "Poughkeepsie",
    "County": "Dutchess",
    "State": "New York",
    "lat": 41.6914,
    "lng": -73.9012,
    "Website": "http://www.arlingtonhasit.org"
  },
  {
    "FMID": 1018253,
    "MarketName": "Arlington Farmers Market",
    "city": "Arlington",
    "County": "Arlington",
    "State": "Virginia",
    "lat": 38.8896,
    "lng": -77.0846,
    "Website": "http://www.community-foodworks.org/arlington-courthouse-market"
  },
  {
    "FMID": 1001991,
    "MarketName": "Arnold Farmers Market",
    "city": "Arnold",
    "County": "Jefferson",
    "State": "Missouri",
    "lat": 38.4546,
    "lng": -90.3586,
    "Website": "http://www.arnoldmo.org"
  },
  {
    "FMID": 1010575,
    "MarketName": "Artisan Exchange West Chester",
    "city": "West Chester",
    "County": "Chester",
    "State": "Pennsylvania",
    "lat": 39.9483,
    "lng": -75.5878,
    "Website": "http://www.artisanexchangewcpa.com"
  },
  {
    "FMID": 1008897,
    "MarketName": "Ashland Farmers Market",
    "city": "Ashland",
    "County": "Hanover",
    "State": "Virginia",
    "lat": 37.7587,
    "lng": -77.4834,
    "Website": "http://www.facebook.com/ashlandfarmersmarket"
  },
  {
    "FMID": 1009810,
    "MarketName": "Ashland Farmers Market",
    "city": "Ashland",
    "County": "Middlesex",
    "State": "Massachusetts",
    "lat": 42.26,
    "lng": -71.4615,
    "Website": "http://www.ashlandfarmersmarket.org/"
  },
  {
    "FMID": 1001245,
    "MarketName": "ASU Regional Farmers Market",
    "city": "Jonesboro",
    "County": "Craighead",
    "State": "Arkansas",
    "lat": 35.8408,
    "lng": -90.6673,
    "Website": "http://www.asuregionalfarmersmarket.org"
  },
  {
    "FMID": 1005086,
    "MarketName": "Athens Farmers Market",
    "city": "Athens",
    "County": "Athens",
    "State": "Ohio",
    "lat": 39.3359,
    "lng": -82.0584,
    "Website": "http://www.athensfarmersmarket.org"
  },
  {
    "FMID": 1018032,
    "MarketName": "Athens Farmers Market, LLC",
    "city": "Athens",
    "County": "Clarke",
    "State": "Georgia",
    "lat": 33.9645,
    "lng": -83.4121,
    "Website": "http://www.athensfarmersmarket.net/"
  },
  {
    "FMID": 1002987,
    "MarketName": "Atherton Market",
    "city": "Charlotte",
    "County": "Mecklenburg",
    "State": "North Carolina",
    "lat": 35.2084,
    "lng": -80.8613,
    "Website": "http://www.athertonmillandmarket.com"
  },
  {
    "FMID": 1006303,
    "MarketName": "Atlantic Highlands Chamber of Commerce Farmers' Market",
    "city": "Atlantic Highlands",
    "County": "Monmouth",
    "State": "New Jersey",
    "lat": 40.4128,
    "lng": -74.0389,
    "Website": "http://www.AtlanticHighlands.org"
  },
  {
    "FMID": 1018330,
    "MarketName": "Attleboro Farmers Market",
    "city": "Attleboro",
    "County": "Bristol",
    "State": "Massachusetts",
    "lat": 41.9379,
    "lng": -71.3,
    "Website": "http://www.attleborofarmersmarket.com"
  },
  {
    "FMID": 1011950,
    "MarketName": "Auburn International Farmers Market",
    "city": "Auburn",
    "County": "King",
    "State": "Washington",
    "lat": 47.3068,
    "lng": -122.2315,
    "Website": "http://www.auburnfarmersmarket.org/"
  },
  {
    "FMID": 1008999,
    "MarketName": "Audubon Park Community Market",
    "city": "Orlando",
    "County": "Orange",
    "State": "Florida",
    "lat": 28.5684,
    "lng": -81.3464,
    "Website": "http://audubonmarket.com/"
  },
  {
    "FMID": 1011929,
    "MarketName": "Aurora's Farmers Market Downtown",
    "city": "Aurora",
    "County": "Kane",
    "State": "Illinois",
    "lat": 41.762,
    "lng": -88.3087,
    "Website": "http://www.aurorasfarmersmarket@aurora-il.org"
  },
  {
    "FMID": 1011490,
    "MarketName": "Austintown Farmers Market",
    "city": "Austintown",
    "County": "Mahoning",
    "State": "Ohio",
    "lat": 41.0705,
    "lng": -80.7741,
    "Website": "http://www.facebook.com/austintownfarmersmarket"
  },
  {
    "FMID": 1011826,
    "MarketName": "Authentically Ajo Farmers Market",
    "city": "Ajo",
    "County": "Pima",
    "State": "Arizona",
    "lat": 32.3726,
    "lng": -112.8623,
    "Website": "http://www.ajocsa.com (under construction)"
  },
  {
    "FMID": 1018742,
    "MarketName": "Avon Farmers Market",
    "city": "Avon",
    "County": "Hendricks",
    "State": "Indiana",
    "lat": 39.7644,
    "lng": -86.3786,
    "Website": "http://www.avongov.org/category/subcategory.php?categoryid=28"
  },
  {
    "FMID": 1010608,
    "MarketName": "Bainbridge Farmers Market",
    "city": "Bainbridge",
    "County": "Decatur",
    "State": "Georgia",
    "lat": 30.9074,
    "lng": -84.5755,
    "Website": "http://www.thebainbridgefarmersmarket.com/"
  },
  {
    "FMID": 1011333,
    "MarketName": "Ballard Farmers Market",
    "city": "Seattle",
    "County": "King",
    "State": "Washington",
    "lat": 47.6676,
    "lng": -122.3847,
    "Website": "http://sfmamarkets.com"
  },
  {
    "FMID": 1003806,
    "MarketName": "Battlefield Farmers Market",
    "city": "Rock Spring",
    "County": "Walker",
    "State": "Georgia",
    "lat": 34.8488,
    "lng": -85.248,
    "Website": "http://www.battlefieldfmkt.org"
  },
  {
    "FMID": 1012753,
    "MarketName": "Beach Baptist Farmers Market",
    "city": "Fort Myers Beach",
    "County": "Lee",
    "State": "Florida",
    "lat": 26.4425,
    "lng": -81.9305,
    "Website": "http://www.41markets.com"
  },
  {
    "FMID": 1001852,
    "MarketName": "Beaches Green Market",
    "city": "Neptune Beach",
    "County": "Duval",
    "State": "Florida",
    "lat": 30.315,
    "lng": -81.3973,
    "Website": "http://www.diglocalnetwork.com"
  },
  {
    "FMID": 1018735,
    "MarketName": "Beaumont Farmers' Market",
    "city": "Beaumont,",
    "County": "Jefferson",
    "State": "Texas",
    "lat": 30.0677,
    "lng": -94.1672,
    "Website": "http://www.beaumontfarmersmarket.org"
  },
  {
    "FMID": 1001275,
    "MarketName": "Beaumont Hospital Royal Oak, Farmers Market",
    "city": "Royal Oak",
    "County": "Oakland",
    "State": "Michigan",
    "lat": 42.5139,
    "lng": -83.192
  },
  {
    "FMID": 1001403,
    "MarketName": "Beaverton Farmers Market",
    "city": "Beaverton",
    "County": "Washington",
    "State": "Oregon",
    "lat": 45.4843,
    "lng": -122.805,
    "Website": "http://www.beavertonfarmersmarket.com"
  },
  {
    "FMID": 1011291,
    "MarketName": "Bedford Farmer's Market",
    "city": "Temperance",
    "County": "Monroe",
    "State": "Michigan",
    "lat": 41.7653,
    "lng": -83.5963,
    "Website": "http://bedfordmifarmersmarket.org"
  },
  {
    "FMID": 1010175,
    "MarketName": "Bedford Farmers Market",
    "city": "Bedford",
    "County": "Bedford",
    "State": "Virginia",
    "lat": 37.3337,
    "lng": -79.5252,
    "Website": "http://bedfordymca.org/BEDFORD%20FARMERS%20MARKET.htm"
  },
  {
    "FMID": 1018709,
    "MarketName": "Bedford Farmers Market",
    "city": "Bedford",
    "County": "Hillsborough",
    "State": "New Hampshire",
    "lat": 42.9504,
    "lng": -71.4825,
    "Website": "http://bedfordfarmersmarket.org"
  },
  {
    "FMID": 1018388,
    "MarketName": "Bedford Hills Winter Farmers' Market",
    "city": "Bedford Hills",
    "County": "Westchester",
    "State": "New York",
    "lat": 41.2373,
    "lng": -73.6999
  },
  {
    "FMID": 1018658,
    "MarketName": "Beechmont Open Air Market",
    "city": "Louisville",
    "County": "Jefferson",
    "State": "Kentucky",
    "lat": 38.1841,
    "lng": -85.7676
  },
  {
    "FMID": 1010368,
    "MarketName": "BeeHaven Farm Roadside Market",
    "city": "Harrisburg",
    "County": "Banner",
    "State": "Nebraska",
    "lat": 41.4428,
    "lng": -103.6518,
    "Website": "http://beehaven-farm.com"
  },
  {
    "FMID": 1008797,
    "MarketName": "Belfast Farmers' Market",
    "city": "Belfast",
    "County": "Waldo",
    "State": "Maine",
    "lat": 44.4292,
    "lng": -69.014,
    "Website": "http://www.belfastfarmersmarket.org"
  },
  {
    "FMID": 1011051,
    "MarketName": "Bellaire Farmers Market",
    "city": "Bellaire",
    "County": "Antrim",
    "State": "Michigan",
    "lat": 44.9748,
    "lng": -85.2053
  },
  {
    "FMID": 1009929,
    "MarketName": "Belmar Fresh Market",
    "city": "Lakewood",
    "County": "Jefferson",
    "State": "Colorado",
    "lat": 39.7111,
    "lng": -105.0814,
    "Website": "http://www.coloradofreshmarkets.com/"
  },
  {
    "FMID": 1009956,
    "MarketName": "Belvidere NJ Farmer's Market",
    "city": "Belvidere",
    "County": "Warren",
    "State": "New Jersey",
    "lat": 40.8273,
    "lng": -75.0765,
    "Website": "http://www.belviderenjfarmersmarket.com"
  },
  {
    "FMID": 1012679,
    "MarketName": "Bensenville French Market",
    "city": "Bensenville",
    "County": "DuPage",
    "State": "Illinois",
    "lat": 41.9561,
    "lng": -87.9419,
    "Website": "http://www.bensidounmidwestmarkets.com/"
  },
  {
    "FMID": 1010815,
    "MarketName": "Benton Farmers' Market",
    "city": "Benton",
    "County": "Bossier",
    "State": "Louisiana",
    "lat": 32.6949,
    "lng": -93.737,
    "Website": "http://www.bentonlafarmersmarket.com"
  },
  {
    "FMID": 1012087,
    "MarketName": "BERLIN FARMERS MARKET",
    "city": "Berlin",
    "County": "Hartford",
    "State": "Connecticut",
    "lat": 41.6438,
    "lng": -72.786
  },
  {
    "FMID": 1011221,
    "MarketName": "Bernice Garden Farmers' Market",
    "city": "Little Rock",
    "County": "Pulaski",
    "State": "Arkansas",
    "lat": 34.735,
    "lng": -92.2726,
    "Website": "http://www.thebernicegarden.org/?portfolio=farmers-market"
  },
  {
    "FMID": 1011149,
    "MarketName": "Berthoud Local Farmers Market",
    "city": "Berthoud",
    "County": "Larimer",
    "State": "Colorado",
    "lat": 40.3053,
    "lng": -105.0826,
    "Website": "http://berthoudlocal.org"
  },
  {
    "FMID": 1010832,
    "MarketName": "Berwyn Township Farmer's Market",
    "city": "Berwyn",
    "County": "Cook",
    "State": "Illinois",
    "lat": 41.8433,
    "lng": -87.7883,
    "Website": "http://berwyntownshipfarmersmarket.org/"
  },
  {
    "FMID": 1010406,
    "MarketName": "Bethesda Central Farm Market",
    "city": "Bethesda",
    "County": "Montgomery",
    "State": "Maryland",
    "lat": 38.987,
    "lng": -77.0992,
    "Website": "http://www.centralfarmmarkets.com"
  },
  {
    "FMID": 1018161,
    "MarketName": "Bettendorf Farmers' Market",
    "city": "Bettendorf",
    "County": "Scott",
    "State": "Iowa",
    "lat": 41.5252,
    "lng": -90.502,
    "Website": "http://mvgrowers.com"
  },
  {
    "FMID": 1000335,
    "MarketName": "Beverly Farmers Market",
    "city": "Beverly",
    "County": "Essex",
    "State": "Massachusetts",
    "lat": 42.5468,
    "lng": -70.8843,
    "Website": "http://www.beverlyfarmersmarket.org"
  },
  {
    "FMID": 1005949,
    "MarketName": "Big Bear Farmers Market",
    "city": "City of Big Bear Lake",
    "County": "San Bernardino",
    "State": "California",
    "lat": 34.2612,
    "lng": -116.8669,
    "Website": "http://www.highdesertfarmersmarket.com"
  },
  {
    "FMID": 1008121,
    "MarketName": "Bigfork Farmers' Market Cooperative",
    "city": "Bigfork",
    "County": "Flathead",
    "State": "Montana",
    "lat": 48.0736,
    "lng": -114.0794,
    "Website": "http://www.bigforkfarmersmarket.com"
  },
  {
    "FMID": 1018044,
    "MarketName": "Birch Run Farmers' Market",
    "city": "Birch Run",
    "County": "Saginaw",
    "State": "Michigan",
    "lat": 43.2478,
    "lng": -83.7778,
    "Website": "http://www.organicworldspicemarket.com/new-events/"
  },
  {
    "FMID": 1010217,
    "MarketName": "Birmingham Farmers Market",
    "city": "Birmingham",
    "County": "Oakland",
    "State": "Michigan",
    "lat": 42.5516,
    "lng": -83.2176,
    "Website": "http://www.birminghamfarmersmarket.org"
  },
  {
    "FMID": 1011037,
    "MarketName": "BisMarket",
    "city": "Bismarck",
    "County": "Burleigh",
    "State": "North Dakota",
    "lat": 46.8025,
    "lng": -100.8086,
    "Website": "http://www.bismarket.com"
  },
  {
    "FMID": 1010442,
    "MarketName": "Black River Falls Downtown Farmer's Market",
    "city": "Black River Falls",
    "County": "Jackson",
    "State": "Wisconsin",
    "lat": 44.2946,
    "lng": -90.8504
  },
  {
    "FMID": 1010004,
    "MarketName": "Blasdell Farmers' Market",
    "city": "Blasdell",
    "County": "Erie",
    "State": "New York",
    "lat": 42.7952,
    "lng": -78.8242,
    "Website": "http://www.hamburg-chamber.org/visit/farmers_market_history.aspx"
  },
  {
    "FMID": 1011911,
    "MarketName": "Bliss Farmer's Market",
    "city": "Bliss",
    "County": "Emmet",
    "State": "Michigan",
    "lat": 45.6813,
    "lng": -84.8831
  },
  {
    "FMID": 1018396,
    "MarketName": "Bloomington Community Farmers' Market",
    "city": "Bloomington, IN",
    "County": "Monroe",
    "State": "Indiana",
    "lat": 39.1703,
    "lng": -86.5369,
    "Website": "http://bloomington.in.gov/farmersmarket"
  },
  {
    "FMID": 1000208,
    "MarketName": "Bloomsburg Farmers Market",
    "city": "Bloomsburg",
    "County": "Columbia",
    "State": "Pennsylvania",
    "lat": 41.0025,
    "lng": -76.4578,
    "Website": "http://www.bloomsburgpa.org/bloomsburg-farmers-market"
  },
  {
    "FMID": 1004074,
    "MarketName": "Boalsburg Farmers Market",
    "city": "Boalsburg",
    "County": "Centre",
    "State": "Pennsylvania",
    "lat": 40.7804,
    "lng": -77.7971,
    "Website": "http://www.boalsburgfarmersmarket.com"
  },
  {
    "FMID": 1018374,
    "MarketName": "Boca Grande Farm & Fish Market",
    "city": "Boca Grande",
    "County": "Lee",
    "State": "Florida",
    "lat": 26.742,
    "lng": -82.26,
    "Website": "http://BuyLocalLee.com"
  },
  {
    "FMID": 1018134,
    "MarketName": "Boca Raton GreenMarket",
    "city": "Boca Raton",
    "County": "Palm Beach",
    "State": "Florida",
    "lat": 26.346,
    "lng": -80.0861
  },
  {
    "FMID": 1010517,
    "MarketName": "Bonita Springs Farmers Market",
    "city": "Bonita Springs",
    "County": "Lee",
    "State": "Florida",
    "lat": 26.3495,
    "lng": -81.8097,
    "Website": "http://BuyLocalLee.com"
  },
  {
    "FMID": 1011174,
    "MarketName": "Botetourt Farmer's Market",
    "city": "Daleville",
    "County": "Botetourt",
    "State": "Virginia",
    "lat": 37.4174,
    "lng": -79.9134,
    "Website": "http://www.facebook.com/botetourtfarmersmarket"
  },
  {
    "FMID": 1004298,
    "MarketName": "Bothell Farmers Market",
    "city": "Bothell",
    "County": "Snohomish",
    "State": "Washington",
    "lat": 47.7823,
    "lng": -122.2217,
    "Website": "http://www.countryvillagebothell.com/farmersmarket"
  },
  {
    "FMID": 1001773,
    "MarketName": "Bounty of the Barrens Farmers' Market - Summer",
    "city": "Glasgow",
    "County": "Barren",
    "State": "Kentucky",
    "lat": 36.996,
    "lng": -85.9127,
    "Website": "http://www.barrencountybounty.com"
  },
  {
    "FMID": 1006524,
    "MarketName": "Bowie Farmers' Market",
    "city": "Bowie",
    "County": "Prince George's",
    "State": "Maryland",
    "lat": 38.9774,
    "lng": -76.7431,
    "Website": "http://www.cityofbowie.org/LeisureActivities/farmers_market.asp"
  },
  {
    "FMID": 1018467,
    "MarketName": "Boyne City Farmers Market",
    "city": "Boyne City",
    "County": "Charlevoix",
    "State": "Michigan",
    "lat": 45.2169,
    "lng": -85.0155,
    "Website": "http://Www.boynecitymainstreet.com"
  },
  {
    "FMID": 1006498,
    "MarketName": "Bozeman Winter Farmers' Market",
    "city": "Bozeman",
    "County": "Gallatin",
    "State": "Montana",
    "lat": 45.6778,
    "lng": -111.0404,
    "Website": "http://bozemanwintermarket.com/"
  },
  {
    "FMID": 1000162,
    "MarketName": "Bozrah Farmers Market",
    "city": "Bozrah",
    "County": "New London",
    "State": "Connecticut",
    "lat": 41.5522,
    "lng": -72.1683,
    "Website": "http://www.bozrahfarmersmarket.org"
  },
  {
    "FMID": 1010748,
    "MarketName": "Brainerd Farmers Market",
    "city": "Chattanooga",
    "County": "Hamilton",
    "State": "Tennessee",
    "lat": 35.0185,
    "lng": -85.2397
  },
  {
    "FMID": 1018227,
    "MarketName": "Braintree Farmers Market",
    "city": "Braintree",
    "County": "Norfolk",
    "State": "Massachusetts",
    "lat": 42.2064,
    "lng": -71.0049,
    "Website": "http://www.braintreefarmersmarket.org"
  },
  {
    "FMID": 1008611,
    "MarketName": "Brevard County Farmers Market",
    "city": "Melbourne",
    "County": "Brevard",
    "State": "Florida",
    "lat": 28.1603,
    "lng": -80.6669,
    "Website": "https://www.brevardcountyfarmersmarket.com"
  },
  {
    "FMID": 1003004,
    "MarketName": "Brewer Farmers' Market",
    "city": "Brewer",
    "County": "Penobscot",
    "State": "Maine",
    "lat": 44.7877,
    "lng": -68.7559,
    "Website": "http://www.brewermaine.gov/community"
  },
  {
    "FMID": 1006853,
    "MarketName": "Briarcliff Village Farmers Market",
    "city": "Kansas City",
    "County": "Clay",
    "State": "Missouri",
    "lat": 39.1696,
    "lng": -94.5967,
    "Website": "http://www.greenacres.com"
  },
  {
    "FMID": 1006305,
    "MarketName": "Briargate Farmers Market",
    "city": "Colorado Springs",
    "County": "El Paso",
    "State": "Colorado",
    "lat": 38.8247,
    "lng": -104.8409,
    "Website": "http://www.springsfarmersmarket.com"
  },
  {
    "FMID": 1008017,
    "MarketName": "Bristow Farmers Market",
    "city": "Bristow",
    "County": "Prince William",
    "State": "Virginia",
    "lat": 38.7593,
    "lng": -77.5758,
    "Website": "http://www.BristowFarmersMarket.com"
  },
  {
    "FMID": 1006306,
    "MarketName": "Broadmoor Farmers Market",
    "city": "Colorado Springs",
    "County": "El Paso",
    "State": "Colorado",
    "lat": 38.7946,
    "lng": -104.8336,
    "Website": "http://www.springsfarmersmarket.com"
  },
  {
    "FMID": 1016864,
    "MarketName": "Broadway Farmers Market",
    "city": "Broadway",
    "County": "Rockingham",
    "State": "Virginia",
    "lat": 38.6114,
    "lng": -78.7999,
    "Website": "http://www.town.broadway.va.us/farmets-market.html"
  },
  {
    "FMID": 1018661,
    "MarketName": "Broken Bow Farmers Market",
    "city": "Broken Bow",
    "County": "Custer",
    "State": "Nebraska",
    "lat": 41.4024,
    "lng": -99.6233
  },
  {
    "FMID": 1001097,
    "MarketName": "Brookfield Farmers Market",
    "city": "Brookfield",
    "County": "Waukesha",
    "State": "Wisconsin",
    "lat": 43.0578,
    "lng": -88.1256,
    "Website": "http://www.brookfieldfarmersmarket.com"
  },
  {
    "FMID": 1003988,
    "MarketName": "Brookfield Farmers Market",
    "city": "Brookfield",
    "County": "Cook",
    "State": "Illinois",
    "lat": 41.8231,
    "lng": -87.8411,
    "Website": "http://www.brookfieldchamber.net"
  },
  {
    "FMID": 1012726,
    "MarketName": "Brookhaven Farmers Market",
    "city": "Brookhaven",
    "County": "DeKalb",
    "State": "Georgia",
    "lat": 33.8601,
    "lng": -84.3347,
    "Website": "http://www.brookhavenfarmersmarket.com"
  },
  {
    "FMID": 1012171,
    "MarketName": "Broome County Regional Farmers Market",
    "city": "Binghamton",
    "County": "Broome",
    "State": "New York",
    "lat": 42.1282,
    "lng": -75.906,
    "Website": "http://www.bcregionalmkt.com"
  },
  {
    "FMID": 1017938,
    "MarketName": "Brownsburg Farmers Market",
    "city": "Brownsburg",
    "County": "Hendricks",
    "State": "Indiana",
    "lat": 39.8443,
    "lng": -86.3965,
    "Website": "http://www.brownsburg.org"
  },
  {
    "FMID": 1009721,
    "MarketName": "Brownstown Farmers Market",
    "city": "Brownstown",
    "County": "Wayne",
    "State": "Michigan",
    "lat": 42.1504,
    "lng": -83.2646,
    "Website": "http://www.brownstowndda.org"
  },
  {
    "FMID": 1011923,
    "MarketName": "BTN Lake Nona Farmers Market",
    "city": "Orlando",
    "County": "Orange",
    "State": "Florida",
    "lat": 28.3848,
    "lng": -81.2461,
    "Website": "http://BTNLakeNonaFarmersMarket.weebly.com"
  },
  {
    "FMID": 1012090,
    "MarketName": "Burlington Farmers Market",
    "city": "Burlington",
    "County": "Chittenden",
    "State": "Vermont",
    "lat": 44.4766,
    "lng": -73.2134,
    "Website": "http://www.burlingtonfarmersmarket.org"
  },
  {
    "FMID": 1011043,
    "MarketName": "Burlington Farmers' Market",
    "city": "Burlington",
    "County": "Middlesex",
    "State": "Massachusetts",
    "lat": 42.5037,
    "lng": -71.1909,
    "Website": "http://www.farmersmarketburlington.org"
  },
  {
    "FMID": 1018666,
    "MarketName": "Burrillville Farmers Market",
    "city": "HARRISVILLE",
    "County": "Washington",
    "State": "Rhode Island",
    "lat": 41.9675,
    "lng": -71.6771,
    "Website": "http://www.burrillvillefarmersmarket.org"
  },
  {
    "FMID": 1001362,
    "MarketName": "Butte Farmers Market",
    "city": "Butte",
    "County": "Silver Bow",
    "State": "Montana",
    "lat": 46.0127,
    "lng": -112.5364,
    "Website": "http://www.mainstrreetbutte.org/fmarket.htm"
  },
  {
    "FMID": 1018262,
    "MarketName": "Caledonia Farmers Market Association - Saturday",
    "city": "St. Johnsbury",
    "County": "Caledonia",
    "State": "Vermont",
    "lat": 44.4169,
    "lng": -72.0166,
    "Website": "https://sites.google.com/site/caledoniafarmersmarket/"
  },
  {
    "FMID": 1010782,
    "MarketName": "Camano Island Farmers Market",
    "city": "Camano Island",
    "County": "Island",
    "State": "Washington",
    "lat": 48.2414,
    "lng": -122.4552
  },
  {
    "FMID": 1018257,
    "MarketName": "Camarillo Hospice Certified Farmers Market",
    "city": "Camarillo",
    "County": "Ventura",
    "State": "California",
    "lat": 34.2165,
    "lng": -119.0413,
    "Website": "http://camarillofarmersmarket.com"
  },
  {
    "FMID": 1002969,
    "MarketName": "Cambridge Main Street Farmers' Market",
    "city": "Cambridge",
    "County": "Dorchester",
    "State": "Maryland",
    "lat": 38.5749,
    "lng": -76.0721,
    "Website": "http://www.cambridgemainstreet.com/index.php?page=main-street-farmers-market"
  },
  {
    "FMID": 1009034,
    "MarketName": "Canal District Farmers Market",
    "city": "Worcester",
    "County": "Worcester",
    "State": "Massachusetts",
    "lat": 42.2562,
    "lng": -71.7974,
    "Website": "http://www.canaldistrictfarmersmarket.com"
  },
  {
    "FMID": 1012548,
    "MarketName": "Cannon Beach Farmers Market",
    "city": "Cannon Beach",
    "County": "Clatsop",
    "State": "Oregon",
    "lat": 45.8898,
    "lng": -123.9608,
    "Website": "http://Cannon Beach Market.org"
  },
  {
    "FMID": 1012636,
    "MarketName": "Canterbury Community Farmers Market Association",
    "city": "Canterbury",
    "County": "Merrimack",
    "State": "New Hampshire",
    "lat": 43.3383,
    "lng": -71.5655,
    "Website": "http://www.ccfma.net"
  },
  {
    "FMID": 1017959,
    "MarketName": "Canton Farmers Market",
    "city": "Canton",
    "County": "Wayne",
    "State": "Michigan",
    "lat": 42.3087,
    "lng": -83.5346,
    "Website": "http://www.canton-mi.org/"
  },
  {
    "FMID": 1010438,
    "MarketName": "Canyonville Farmer's Market",
    "city": "Canyonville",
    "County": "Douglas",
    "State": "Oregon",
    "lat": 42.9392,
    "lng": -123.2833,
    "Website": "http://www.CanyonvilleFarmersMarket.org"
  },
  {
    "FMID": 1004444,
    "MarketName": "Capital City Farmers Market",
    "city": "Pierre",
    "County": "Hughes",
    "State": "South Dakota",
    "lat": 44.366,
    "lng": -100.3527,
    "Website": "http://capcitymarket.wordpress.com"
  },
  {
    "FMID": 1006925,
    "MarketName": "Capital City Farmers Market",
    "city": "Trenton",
    "County": "Mercer",
    "State": "New Jersey",
    "lat": 40.2186,
    "lng": -74.7635,
    "Website": "http://www.destinationtrenton.com/events/event-markets/"
  },
  {
    "FMID": 1018375,
    "MarketName": "Captiva Island Farmers Market at South Seas Resort",
    "city": "Captiva Island",
    "County": "Lee",
    "State": "Florida",
    "lat": 26.5252,
    "lng": -82.1906,
    "Website": "http://BuyLocalLee.com"
  },
  {
    "FMID": 1011167,
    "MarketName": "Carbondale Farmers' Market",
    "city": "Carbondale",
    "County": "Jackson",
    "State": "Illinois",
    "lat": 37.7302,
    "lng": -89.2434
  },
  {
    "FMID": 1012654,
    "MarketName": "Carefree Farmers Market",
    "city": "Carefree",
    "County": "Maricopa",
    "State": "Arizona",
    "lat": 33.8247,
    "lng": -111.9218,
    "Website": "http://www.arizonacommunityfarmersmarkets.com/FM_Carefree.html"
  },
  {
    "FMID": 1011230,
    "MarketName": "Carlisle Farmers Market",
    "city": "Carlisle",
    "County": "Middlesex",
    "State": "Massachusetts",
    "lat": 42.5248,
    "lng": -71.3378,
    "Website": "http://Carlislefarmersmarket.org"
  },
  {
    "FMID": 1007367,
    "MarketName": "Carmel Farmers Market",
    "city": "Carmel",
    "County": "Hamilton",
    "State": "Indiana",
    "lat": 39.9694,
    "lng": -86.1304,
    "Website": "http://www.carmelfarmersmarket.com"
  },
  {
    "FMID": 1006651,
    "MarketName": "Carnation Farmers Market",
    "city": "Carnation",
    "County": "King",
    "State": "Washington",
    "lat": 47.6486,
    "lng": -121.9124,
    "Website": "http://www.carnationfarmersmarket.org"
  },
  {
    "FMID": 1009038,
    "MarketName": "Caro Farmers Market",
    "city": "Caro",
    "County": "Tuscola",
    "State": "Michigan",
    "lat": 43.4909,
    "lng": -83.3935,
    "Website": "http://www.carochamber.org"
  },
  {
    "FMID": 1010092,
    "MarketName": "Carolina Beach Farmer's Market",
    "city": "Carolina Beach",
    "County": "New Hanover",
    "State": "North Carolina",
    "lat": 34.0298,
    "lng": -77.8953,
    "Website": "http://carolinabeachfarmersmarket.com/"
  },
  {
    "FMID": 1004738,
    "MarketName": "Carroll County Farmer's Market",
    "city": "Westminster",
    "County": "Carroll",
    "State": "Maryland",
    "lat": 39.5559,
    "lng": -77.0002,
    "Website": "http://www.carrollcountyfarmersmarket.com"
  },
  {
    "FMID": 1011711,
    "MarketName": "Castle Hills Farm To Market",
    "city": "Castle Hills",
    "County": "Bexar",
    "State": "Texas",
    "lat": 29.5341,
    "lng": -98.5224,
    "Website": "http://localfarmtomarket.com"
  },
  {
    "FMID": 1003143,
    "MarketName": "Castle Rock Farmers Market, aka Plum Creek Valley Farmers Market",
    "city": "Castle Rock",
    "County": "Douglas",
    "State": "Colorado",
    "lat": 39.3723,
    "lng": -104.86,
    "Website": "http://www.douglascountyextension.org"
  },
  {
    "FMID": 1011496,
    "MarketName": "Catawba Valley Farmers' Market",
    "city": "Catawba",
    "County": "Roanoke",
    "State": "Virginia",
    "lat": 37.383,
    "lng": -80.1064
  },
  {
    "FMID": 1012484,
    "MarketName": "Cedar Mill Farmers Market",
    "city": "Portland",
    "County": "Washington",
    "State": "Oregon",
    "lat": 45.5264,
    "lng": -122.8141,
    "Website": "http://www.cedarmillfarmersmarket.org"
  },
  {
    "FMID": 1003488,
    "MarketName": "Cedar Valley Farmers Market",
    "city": "Murphy",
    "County": "Cherokee",
    "State": "North Carolina",
    "lat": 35.0858,
    "lng": -84.0367,
    "Website": "http://www.doylescedarhill.com/farmers-market"
  },
  {
    "FMID": 1018734,
    "MarketName": "Celina's Friday Night Market",
    "city": "Celina",
    "County": "Collin",
    "State": "Texas",
    "lat": 33.3248,
    "lng": -96.787,
    "Website": "http://celinamarketonthesquare.com/"
  },
  {
    "FMID": 1010090,
    "MarketName": "Centerville Farmers Market",
    "city": "Centerville",
    "County": "Montgomery",
    "State": "Ohio",
    "lat": 39.6153,
    "lng": -84.1599,
    "Website": "http://www.centervillefarmersmarket.com"
  },
  {
    "FMID": 1010399,
    "MarketName": "Central Market York",
    "city": "York",
    "County": "York",
    "State": "Pennsylvania",
    "lat": 39.9635,
    "lng": -76.7295,
    "Website": "http://Centralmarketyork.com"
  },
  {
    "FMID": 1000799,
    "MarketName": "Centreville Farmers' Market",
    "city": "Centreville",
    "County": "Queen Anne's",
    "State": "Maryland",
    "lat": 39.0448,
    "lng": -76.0651
  },
  {
    "FMID": 1001321,
    "MarketName": "CFM at the Promenade Mall",
    "city": "Temecula",
    "County": "Riverside",
    "State": "California",
    "lat": 33.5231,
    "lng": -117.1551,
    "Website": "http://www.myfarmersmarkets.com"
  },
  {
    "FMID": 1012507,
    "MarketName": "Champaign County Farmers' Market",
    "city": "Urbana",
    "County": "Champaign",
    "State": "Ohio",
    "lat": 40.1069,
    "lng": -83.751
  },
  {
    "FMID": 1010786,
    "MarketName": "Champlain Islands Farmers Market",
    "city": "Grand Isle",
    "County": "Grand Isle",
    "State": "Vermont",
    "lat": 44.7192,
    "lng": -73.2952,
    "Website": "http://www.champlainislandsfarmersmarket.com/"
  },
  {
    "FMID": 1010787,
    "MarketName": "Champlain Islands Farmers Market - South Hero",
    "city": "South Hero",
    "County": "Grand Isle",
    "State": "Vermont",
    "lat": 44.6619,
    "lng": -73.3223,
    "Website": "http://www.champlainislandsfarmersmarket.com/"
  },
  {
    "FMID": 1018080,
    "MarketName": "Chandler Farmers Market",
    "city": "Chandler",
    "County": "Maricopa",
    "State": "Arizona",
    "lat": 33.3035,
    "lng": -111.8416,
    "Website": "http://www.downtownchandler.org/farmersmarket/"
  },
  {
    "FMID": 1018335,
    "MarketName": "Charleston Farmers Market",
    "city": "Charleston",
    "County": "Charleston",
    "State": "South Carolina",
    "lat": 32.7869,
    "lng": -79.9357,
    "Website": "http://CharlestonFarmersMarket.com"
  },
  {
    "FMID": 1004271,
    "MarketName": "Charlevoix Farmers Market",
    "city": "Charlevoix",
    "County": "Charlevoix",
    "State": "Michigan",
    "lat": 45.3164,
    "lng": -85.2584,
    "Website": "http://www.charlevoixmainstreet.org"
  },
  {
    "FMID": 1010687,
    "MarketName": "Charlotte Harbor Farmers Market",
    "city": "Charlotte Harbor",
    "County": "Charlotte",
    "State": "Florida",
    "lat": 26.9565,
    "lng": -82.0798
  },
  {
    "FMID": 1012019,
    "MarketName": "Charlottesville City Market",
    "city": "Charlottesville",
    "County": "Albemarle",
    "State": "Virginia",
    "lat": 38.0296,
    "lng": -78.4817,
    "Website": "http://www.charlottesville.org/departments-and-services/departments-h-z/parks-recreation-/city-market"
  },
  {
    "FMID": 1000626,
    "MarketName": "Chatham Mills Farmers' Market",
    "city": "Pittsboro",
    "County": "Chatham",
    "State": "North Carolina",
    "lat": 35.727,
    "lng": -79.1759,
    "Website": "http://www.chathammillsfarmersmarket.com"
  },
  {
    "FMID": 1011537,
    "MarketName": "Chattanooga Market",
    "city": "Chattanooga",
    "County": "Hamilton",
    "State": "Tennessee",
    "lat": 35.037,
    "lng": -85.3174,
    "Website": "http://chattanoogamarket.com"
  },
  {
    "FMID": 1006635,
    "MarketName": "Cheery Street Farmers Market  - WEDNESDAY MARKET on BROOKSIDE",
    "city": "Tulsa",
    "County": "Tulsa",
    "State": "Oklahoma",
    "lat": 36.1047,
    "lng": -95.9728,
    "Website": "https://www.cherrystreetfarmersmarket.com"
  },
  {
    "FMID": 1004463,
    "MarketName": "Chelmsford Agway Winter Farmers' Market",
    "city": "Chelmsford",
    "County": "Middlesex",
    "State": "Massachusetts",
    "lat": 42.5713,
    "lng": -71.3806,
    "Website": "http://chelmsfordagwayfarmersmarket.blogspot.com/"
  },
  {
    "FMID": 1002353,
    "MarketName": "Cherokee Street International Farmers Market",
    "city": "St. Louis",
    "County": "St. Louis City",
    "State": "Missouri",
    "lat": 38.5938,
    "lng": -90.2274,
    "Website": "http://www.cherokeemarket.org"
  },
  {
    "FMID": 1006636,
    "MarketName": "Cherry Street Farmers Market",
    "city": "Tulsa",
    "County": "Tulsa",
    "State": "Oklahoma",
    "lat": 36.1381,
    "lng": -95.9734,
    "Website": "https://www.cherrystreetfarmersmarket.com"
  },
  {
    "FMID": 1002187,
    "MarketName": "Chestertown Farmers' Market",
    "city": "Chestertown",
    "County": "Kent",
    "State": "Maryland",
    "lat": 39.2095,
    "lng": -76.0666,
    "Website": "http://www.chestertown.com/market/index.php"
  },
  {
    "FMID": 1000561,
    "MarketName": "Chicago Heights Corner Market",
    "city": "Chicago Heights",
    "County": "Cook",
    "State": "Illinois",
    "lat": 41.5202,
    "lng": -87.6462,
    "Website": "http://www.chcornermarket.com"
  },
  {
    "FMID": 1012379,
    "MarketName": "Chicago-Nettelhorst French Market",
    "city": "Chicago",
    "County": "Cook",
    "State": "Illinois",
    "lat": 41.9412,
    "lng": -87.6446,
    "Website": "http://www.bensidounmidwestmarkets.com/"
  },
  {
    "FMID": 1010226,
    "MarketName": "Chillicothe Farmers' Market Association",
    "city": "Chillicothe",
    "County": "Ross",
    "State": "Ohio",
    "lat": 39.335,
    "lng": -83.0032,
    "Website": "http://www.chillicothefarmersmarket.org"
  },
  {
    "FMID": 1012610,
    "MarketName": "Church + Main Market",
    "city": "Appomattox",
    "County": "Appomattox",
    "State": "Virginia",
    "lat": 37.3532,
    "lng": -78.8266,
    "Website": "http://churchmain.com"
  },
  {
    "FMID": 1011307,
    "MarketName": "Cibolo Grange Farmers Market",
    "city": "Cibolo",
    "County": "Guadalupe",
    "State": "Texas",
    "lat": 29.5648,
    "lng": -98.2296
  },
  {
    "FMID": 1012712,
    "MarketName": "City Market Kansas City- Year-round",
    "city": "Kansas City",
    "County": "Jackson",
    "State": "Missouri",
    "lat": 39.1087,
    "lng": -94.5822,
    "Website": "http://thecitymarket.org"
  },
  {
    "FMID": 1005719,
    "MarketName": "City of Grand Blanc Farmers Market",
    "city": "GRAND BLANC",
    "County": "Genesee",
    "State": "Michigan",
    "lat": 42.9273,
    "lng": -83.6322,
    "Website": "http://www.cityofgrandblanc.com/NewsEvents/FarmersMarket/tabid/5439/Default.aspx"
  },
  {
    "FMID": 1004255,
    "MarketName": "City of Loveland Farmers Market",
    "city": "Loveland",
    "County": "Larimer",
    "State": "Colorado",
    "lat": 40.3875,
    "lng": -105.0785,
    "Website": "http://www.cityofloveland.org/farmersmarket"
  },
  {
    "FMID": 1009719,
    "MarketName": "CIty of Momence",
    "city": "Momence",
    "County": "Kankakee",
    "State": "Illinois",
    "lat": 41.162,
    "lng": -87.663,
    "Website": "http://www.cityofmomence.com"
  },
  {
    "FMID": 1017956,
    "MarketName": "City of North Adams Farmers' Market",
    "city": "North Adams",
    "County": "Berkshire",
    "State": "Massachusetts",
    "lat": 42.7007,
    "lng": -73.1128,
    "Website": "http://explorenorthadams.com/item/north-adams-farmers-market/"
  },
  {
    "FMID": 1010007,
    "MarketName": "City of Papillion, Farmers Market",
    "city": "Papillion",
    "County": "Sarpy",
    "State": "Nebraska",
    "lat": 41.1548,
    "lng": -96.044,
    "Website": "http://www.papillionfarmersmarket.com"
  },
  {
    "FMID": 1018182,
    "MarketName": "City of Rochester Public Market",
    "city": "Rochester",
    "County": "Monroe",
    "State": "New York",
    "lat": 43.1656,
    "lng": -77.5897,
    "Website": "http://www.cityofrochester.gov/publicmarket"
  },
  {
    "FMID": 1005943,
    "MarketName": "CitySeed Wooster Square Farmers Market",
    "city": "New Haven",
    "County": "New Haven",
    "State": "Connecticut",
    "lat": 41.3032,
    "lng": -72.9178,
    "Website": "http://www.cityseed.org"
  },
  {
    "FMID": 1011036,
    "MarketName": "Clairemont Certified Farmers Market at Madison High School",
    "city": "San Diego",
    "County": "San Diego",
    "State": "California",
    "lat": 32.8296,
    "lng": -117.1755,
    "Website": "http://www.ClairemontFarmersMarket.com"
  },
  {
    "FMID": 1000579,
    "MarketName": "Clarence Hollow Farmers' Market",
    "city": "Clarence",
    "County": "Erie",
    "State": "New York",
    "lat": 42.9803,
    "lng": -78.5894,
    "Website": "http://www.clarencefarmersmarket.com"
  },
  {
    "FMID": 1007374,
    "MarketName": "Clarendon Farmers Market",
    "city": "Arlington",
    "County": "Arlington",
    "State": "Virginia",
    "lat": 38.8871,
    "lng": -77.0952,
    "Website": "http://clarendon.org/farmersmarket/"
  },
  {
    "FMID": 1000406,
    "MarketName": "Clark Fork Market",
    "city": "Missoula",
    "County": "Missoula",
    "State": "Montana",
    "lat": 46.8787,
    "lng": -113.9966,
    "Website": "http://www.clarkforkmarket.com"
  },
  {
    "FMID": 1011959,
    "MarketName": "Clark Park Farmer's Market",
    "city": "Tempe",
    "County": "Maricopa",
    "State": "Arizona",
    "lat": 33.4088,
    "lng": -111.9483,
    "Website": "http://www.clarkparkfarmersmarket.com"
  },
  {
    "FMID": 1018324,
    "MarketName": "Clarksburg Farmers Market",
    "city": "Clarksburg",
    "County": "Harrison",
    "State": "West Virginia",
    "lat": 39.2764,
    "lng": -80.2825,
    "Website": "http://www.cfmwv.com"
  },
  {
    "FMID": 1018325,
    "MarketName": "Clarksburg Farmers Market - Winter",
    "city": "Clarksburg",
    "County": "Harrison",
    "State": "West Virginia",
    "lat": 39.2802,
    "lng": -80.3376,
    "Website": "http://www.cfmwv.com"
  },
  {
    "FMID": 1004721,
    "MarketName": "Clawson Farmers Market",
    "city": "Clawson",
    "County": "Oakland",
    "State": "Michigan",
    "lat": 42.5419,
    "lng": -83.1529,
    "Website": "http://www.cityofclawson.com/"
  },
  {
    "FMID": 1018298,
    "MarketName": "Clayton Farmers Market",
    "city": "Clayton",
    "County": "Rabun",
    "State": "Georgia",
    "lat": 34.877,
    "lng": -83.3979
  },
  {
    "FMID": 1018551,
    "MarketName": "Clinton County Farmers Market",
    "city": "Wilmington",
    "County": "Clinton",
    "State": "Ohio",
    "lat": 39.4393,
    "lng": -83.8315
  },
  {
    "FMID": 1018117,
    "MarketName": "Clinton Farmers Market",
    "city": "Clinton",
    "County": "Oneida",
    "State": "New York",
    "lat": 43.0489,
    "lng": -75.3785,
    "Website": "http://www.clintonnychamber.org/"
  },
  {
    "FMID": 1010561,
    "MarketName": "Cloudcroft Farmers Market",
    "city": "Cloudcroft",
    "County": "Otero",
    "State": "New Mexico",
    "lat": 32.9574,
    "lng": -105.7406
  },
  {
    "FMID": 1011903,
    "MarketName": "Clover Leaf Marketplace",
    "city": "Sutherlin",
    "County": "Douglas",
    "State": "Oregon",
    "lat": 43.3872,
    "lng": -123.3423
  },
  {
    "FMID": 1001390,
    "MarketName": "Co-op Farmers Market",
    "city": "Newark",
    "County": "New Castle",
    "State": "Delaware",
    "lat": 39.6847,
    "lng": -75.7438,
    "Website": "http://www.newarknaturalfoods.com/farmers-market/"
  },
  {
    "FMID": 1018004,
    "MarketName": "Coastal Growers Farmers Market",
    "city": "Saunderstown",
    "County": "Washington",
    "State": "Rhode Island",
    "lat": 41.5121,
    "lng": -71.4235,
    "Website": "http://www.coastalmarket.org"
  },
  {
    "FMID": 1009041,
    "MarketName": "Cobblestone Farmers Market",
    "city": "Ann Arbor",
    "County": "Washtenaw",
    "State": "Michigan",
    "lat": 42.2451,
    "lng": -83.7101,
    "Website": "http://www.cobblestonefarmmarket.com/"
  },
  {
    "FMID": 1011528,
    "MarketName": "College Hill Farmers Market",
    "city": "Cedar Falls",
    "County": "Black Hawk",
    "State": "Iowa",
    "lat": 42.5176,
    "lng": -92.4561
  },
  {
    "FMID": 1011495,
    "MarketName": "College of San Mateo Certified Farmers' Market",
    "city": "San Mateo",
    "County": "San Mateo",
    "State": "California",
    "lat": 37.5331,
    "lng": -122.3378,
    "Website": "http://pcfma.org"
  },
  {
    "FMID": 1000210,
    "MarketName": "Colorado Farm and Art Market",
    "city": "Colorado Springs",
    "County": "El Paso",
    "State": "Colorado",
    "lat": 38.9377,
    "lng": -104.8147,
    "Website": "http://www.farmandartmarket.com"
  },
  {
    "FMID": 1018196,
    "MarketName": "Columbia Farmers Fresh Market",
    "city": "Columbia",
    "County": "Maury",
    "State": "Tennessee",
    "lat": 35.6188,
    "lng": -87.0305,
    "Website": "http://columbiafarmersfreshmarket.com/"
  },
  {
    "FMID": 1016856,
    "MarketName": "Columbia Farmers Market",
    "city": "Columbia",
    "County": "Boone",
    "State": "Missouri",
    "lat": 38.9586,
    "lng": -92.3637,
    "Website": "http://columbiafarmersmarket.org"
  },
  {
    "FMID": 1017964,
    "MarketName": "Columbus Farmers Market",
    "city": "Columbus",
    "County": "Stillwater",
    "State": "Montana",
    "lat": 45.6368,
    "lng": -109.2537
  },
  {
    "FMID": 1018738,
    "MarketName": "Columbus Farmers Market",
    "city": "Columbus",
    "County": "Bartholomew",
    "State": "Indiana",
    "lat": 39.2036,
    "lng": -85.9239,
    "Website": "http://www.columbusfarmersmarket.org/"
  },
  {
    "FMID": 1003996,
    "MarketName": "Columbus Farmers' Market",
    "city": "Columbus, NC",
    "County": "Polk",
    "State": "North Carolina",
    "lat": 35.2512,
    "lng": -82.1986,
    "Website": "http://www.polkcountyfarms.org/farmers-markets"
  },
  {
    "FMID": 1012754,
    "MarketName": "Community Congregational Farmers Market",
    "city": "Naples",
    "County": "Collier",
    "State": "Florida",
    "lat": 26.3099,
    "lng": -81.8043,
    "Website": "http://www. 41markets.com"
  },
  {
    "FMID": 1009973,
    "MarketName": "Community Farmers Market",
    "city": "Hot Springs Village",
    "County": "Garland",
    "State": "Arkansas",
    "lat": 34.63,
    "lng": -93.0571,
    "Website": "http://www.hwy7farmersmarket.com"
  },
  {
    "FMID": 1012415,
    "MarketName": "Community Farmers Market Bowling Green",
    "city": "Bowling Green",
    "County": "Warren",
    "State": "Kentucky",
    "lat": 36.9658,
    "lng": -86.4658,
    "Website": "http://www.communityfarmersmarketbg.com/"
  },
  {
    "FMID": 1011785,
    "MarketName": "Concord Farmers Market Association",
    "city": "Concord",
    "County": "Merrimack",
    "State": "New Hampshire",
    "lat": 43.2065,
    "lng": -71.5384,
    "Website": "http://www.concordfarmersmarket.com"
  },
  {
    "FMID": 1010773,
    "MarketName": "Conifer Farmers Market",
    "city": "Conifer",
    "County": "Jefferson",
    "State": "Colorado",
    "lat": 39.5446,
    "lng": -105.2872,
    "Website": "http://www.conifersummermarket.com"
  },
  {
    "FMID": 1009865,
    "MarketName": "Conway Farmers Market",
    "city": "Conway",
    "County": "Faulkner",
    "State": "Arkansas",
    "lat": 35.0786,
    "lng": -92.4128
  },
  {
    "FMID": 1010400,
    "MarketName": "Cooper Young Community Farmers Market",
    "city": "Memphis",
    "County": "Shelby",
    "State": "Tennessee",
    "lat": 35.1188,
    "lng": -89.9907,
    "Website": "http://cycfarmersmarket.org"
  },
  {
    "FMID": 1000158,
    "MarketName": "Coppell Farmers Market",
    "city": "Coppell",
    "County": "Dallas",
    "State": "Texas",
    "lat": 32.9529,
    "lng": -97.007,
    "Website": "http://www.coppellfarmersmarket.org"
  },
  {
    "FMID": 1009614,
    "MarketName": "Corey Avenue Sunday Fresh Market",
    "city": "St Petersburg",
    "County": "Pinellas",
    "State": "Florida",
    "lat": 27.7416,
    "lng": -82.751,
    "Website": "http://www.CoreySundayMarket.com"
  },
  {
    "FMID": 1012666,
    "MarketName": "Corpus Christi Downtown Farmers' Market",
    "city": "Corpus Christi",
    "County": "Nueces",
    "State": "Texas",
    "lat": 27.7919,
    "lng": -97.3925,
    "Website": "http://www.ccdowntownfm.com"
  },
  {
    "FMID": 1009760,
    "MarketName": "Corvallis Farmers' Market",
    "city": "Corvallis",
    "County": "Benton",
    "State": "Oregon",
    "lat": 44.5648,
    "lng": -123.2582,
    "Website": "http://www.locallygrown.org"
  },
  {
    "FMID": 1000236,
    "MarketName": "Corvallis Indoor Winter Market",
    "city": "Corvallis",
    "County": "Benton",
    "State": "Oregon",
    "lat": 44.567,
    "lng": -123.3149
  },
  {
    "FMID": 1010810,
    "MarketName": "Country Farmers Market",
    "city": "Pierre",
    "County": "Hughes",
    "State": "South Dakota",
    "lat": 44.3792,
    "lng": -100.316,
    "Website": "http://countrymarketpierre.com"
  },
  {
    "FMID": 1004748,
    "MarketName": "Countryside Farmers' Markets at Old Trail School",
    "city": "Akron",
    "County": "Summit",
    "State": "Ohio",
    "lat": 41.1869,
    "lng": -81.5881,
    "Website": "http://www.cvcountryside.org"
  },
  {
    "FMID": 1018559,
    "MarketName": "Coupeville Farmers Market",
    "city": "Coupeville",
    "County": "Island",
    "State": "Washington",
    "lat": 48.2193,
    "lng": -122.6892
  },
  {
    "FMID": 1007304,
    "MarketName": "Coventry Regional Farmers' Market",
    "city": "Coventry",
    "County": "Tolland",
    "State": "Connecticut",
    "lat": 41.7641,
    "lng": -72.3457,
    "Website": "http://www.coventryfarmersmarket.com"
  },
  {
    "FMID": 1012552,
    "MarketName": "Cowtown Farmers Market",
    "city": "Fort Worth",
    "County": "Tarrant",
    "State": "Texas",
    "lat": 32.7164,
    "lng": -97.442,
    "Website": "http://www.cowtownmarket.com"
  },
  {
    "FMID": 1018027,
    "MarketName": "Craftsbury Farmers Market",
    "city": "Craftsbury Common",
    "County": "Orleans",
    "State": "Vermont",
    "lat": 44.6541,
    "lng": -72.3826,
    "Website": "http://craftsburyfarmersmarket.com/"
  },
  {
    "FMID": 1018700,
    "MarketName": "Crescent Ridge Farmers Market",
    "city": "Sharon",
    "County": "Norfolk",
    "State": "Massachusetts",
    "lat": 42.1175,
    "lng": -71.186,
    "Website": "http://www.crescentridgefarmersmarket.com"
  },
  {
    "FMID": 1012748,
    "MarketName": "Crofton Farmers Market",
    "city": "Crofton",
    "County": "Anne Arundel",
    "State": "Maryland",
    "lat": 39.0047,
    "lng": -76.6968,
    "Website": "http://www.croftonfarmersmarket.com"
  },
  {
    "FMID": 1011308,
    "MarketName": "Cromwell Farmers Market",
    "city": "Cromwell",
    "County": "Middlesex",
    "State": "Connecticut",
    "lat": 41.5849,
    "lng": -72.6456,
    "Website": "http://www.cromwellfarmersmerkate.org"
  },
  {
    "FMID": 1018745,
    "MarketName": "Crooked Creek Farmers Market",
    "city": "Indianapolis",
    "County": "Marion",
    "State": "Indiana",
    "lat": 39.8854,
    "lng": -86.2119,
    "Website": "http://www.crookedcreekcdc.org/farmers-market"
  },
  {
    "FMID": 1018367,
    "MarketName": "Cumberland Farmers Market",
    "city": "Cumberland",
    "County": "Marion",
    "State": "Indiana",
    "lat": 39.776,
    "lng": -85.9608,
    "Website": "http://www.town.cumberland.in.us/government/departments/farmers_market/index.php"
  },
  {
    "FMID": 1012001,
    "MarketName": "Cummins Farmer's Market",
    "city": "Columbus",
    "County": "Bartholomew",
    "State": "Indiana",
    "lat": 39.2037,
    "lng": -85.9222
  },
  {
    "FMID": 1009889,
    "MarketName": "Cuyahoga Falls Farmers' Market (Farmers' Market in the Falls)",
    "city": "Cuyahoga Falls",
    "County": "Summit",
    "State": "Ohio",
    "lat": 41.1279,
    "lng": -81.4977,
    "Website": "http://cfo.cityofcf.com/web/parks-and-recreation/farmers-market-falls"
  },
  {
    "FMID": 1018383,
    "MarketName": "Damascus Farmers Market",
    "city": "Damascus",
    "County": "Clackamas",
    "State": "Oregon",
    "lat": 45.4172,
    "lng": -122.4556,
    "Website": "http://damascusfarmersmarket.org/home.aspx"
  },
  {
    "FMID": 1004516,
    "MarketName": "Danbury Farmers' Market",
    "city": "Danbury",
    "County": "Fairfield",
    "State": "Connecticut",
    "lat": 41.3964,
    "lng": -73.4554,
    "Website": "http://www.danburyfarmersmarket.org"
  },
  {
    "FMID": 1005176,
    "MarketName": "Dane County Farmers Market - Holiday Market",
    "city": "Madison",
    "County": "Dane",
    "State": "Wisconsin",
    "lat": 43.0714,
    "lng": -89.3803,
    "Website": "http://www.dcfm.org"
  },
  {
    "FMID": 1005175,
    "MarketName": "Dane County Farmers Market - Winter Market",
    "city": "Madison",
    "County": "Dane",
    "State": "Wisconsin",
    "lat": 43.0731,
    "lng": -89.3896
  },
  {
    "FMID": 1005178,
    "MarketName": "Dane County Farmers Market I",
    "city": "Madison",
    "County": "Dane",
    "State": "Wisconsin",
    "lat": 43.0746,
    "lng": -89.3843,
    "Website": "http://www.dcfm.org"
  },
  {
    "FMID": 1011974,
    "MarketName": "Danvers Farmers Market",
    "city": "Danvers",
    "County": "Essex",
    "State": "Massachusetts",
    "lat": 42.5632,
    "lng": -70.9384,
    "Website": "http://www.danversfarmersmarket.org/"
  },
  {
    "FMID": 1003908,
    "MarketName": "Danville Chamber of Commerce Farmer's Market",
    "city": "Danville",
    "County": "Hendricks",
    "State": "Indiana",
    "lat": 39.7606,
    "lng": -86.5251,
    "Website": "http://www.danvillechamber.org"
  },
  {
    "FMID": 1018157,
    "MarketName": "Davenport Farmers' Market",
    "city": "Davenport",
    "County": "Scott",
    "State": "Iowa",
    "lat": 41.5629,
    "lng": -90.5712,
    "Website": "http://mvgrowers.com"
  },
  {
    "FMID": 1011946,
    "MarketName": "Daytona Beach Downtown Farmers' Market",
    "city": "Daytona Beach",
    "County": "Volusia",
    "State": "Florida",
    "lat": 29.2108,
    "lng": -81.0166,
    "Website": "http://www.riverfrontshopsofdaytona.com/daytona-beach-downtown-farmers-market/"
  },
  {
    "FMID": 1018610,
    "MarketName": "Decatur Farmers Market",
    "city": "Decatur",
    "County": "DeKalb",
    "State": "Georgia",
    "lat": 33.7788,
    "lng": -84.2968,
    "Website": "http://cfmatl.org/decatur"
  },
  {
    "FMID": 1008296,
    "MarketName": "Dedham Farmers Market",
    "city": "Dedham",
    "County": "Norfolk",
    "State": "Massachusetts",
    "lat": 42.249,
    "lng": -71.1772,
    "Website": "http://www.dedhamfarmersmarket.org"
  },
  {
    "FMID": 1018154,
    "MarketName": "Deerfield Beach Farmer's Market",
    "city": "Deerfield Beach",
    "County": "Broward",
    "State": "Florida",
    "lat": 26.3181,
    "lng": -80.098,
    "Website": "http://www.deerfield-history.org"
  },
  {
    "FMID": 1011103,
    "MarketName": "DeKalb Farmers' Market",
    "city": "DeKalb",
    "County": "DeKalb",
    "State": "Illinois",
    "lat": 41.9314,
    "lng": -88.7522,
    "Website": "http://www.downtowndekalb.org"
  },
  {
    "FMID": 1018416,
    "MarketName": "Delcambre Seafood & Farmers Market",
    "city": "Delcambre",
    "County": "Iberia",
    "State": "Louisiana",
    "lat": 29.9417,
    "lng": -91.9825,
    "Website": "http://www.DelcambreMarket.org"
  },
  {
    "FMID": 1011285,
    "MarketName": "Delmar Farmers Market",
    "city": "Delmar",
    "County": "Albany",
    "State": "New York",
    "lat": 42.6199,
    "lng": -73.8255,
    "Website": "http://delmarmarket.org"
  },
  {
    "FMID": 1009013,
    "MarketName": "Denton Community Market",
    "city": "Denton",
    "County": "Denton",
    "State": "Texas",
    "lat": 33.2132,
    "lng": -97.1364,
    "Website": "http://www.dentonmarket.org"
  },
  {
    "FMID": 1004069,
    "MarketName": "Denver Urban Homesteading Farmers Market",
    "city": "Denver",
    "County": "Denver",
    "State": "Colorado",
    "lat": 39.7195,
    "lng": -104.9983,
    "Website": "http://www.denverurbanhomesteading.com"
  },
  {
    "FMID": 1004366,
    "MarketName": "Denville Farmers Market",
    "city": "Denville",
    "County": "Morris",
    "State": "New Jersey",
    "lat": 40.891,
    "lng": -74.4761,
    "Website": "http://www.denvillefarmersmarket.com"
  },
  {
    "FMID": 1007255,
    "MarketName": "Des Moines Waterfront Farmers Market",
    "city": "Des Moines",
    "County": "King",
    "State": "Washington",
    "lat": 47.4017,
    "lng": -122.3293,
    "Website": "http://www.DMFM.org"
  },
  {
    "FMID": 1010129,
    "MarketName": "Dillon Farmers Market",
    "city": "Dillon",
    "County": "Beaverhead",
    "State": "Montana",
    "lat": 45.2181,
    "lng": -112.6371,
    "Website": "http://www.dillonfarmersmarket.blogspot.com"
  },
  {
    "FMID": 1004217,
    "MarketName": "Dixboro Farmers' Market",
    "city": "Ann Arbor",
    "County": "Washtenaw",
    "State": "Michigan",
    "lat": 42.3125,
    "lng": -83.6563,
    "Website": "http://www.dixborofarmersmarket.org"
  },
  {
    "FMID": 1003376,
    "MarketName": "Dixie Lee Farmers Market",
    "city": "Knoxville",
    "County": "Knox",
    "State": "Tennessee",
    "lat": 35.8671,
    "lng": -84.2094,
    "Website": "http://www.dixieleefarmersmarket.com/"
  },
  {
    "FMID": 1012333,
    "MarketName": "Dogtown Farmers Market",
    "city": "North Little Rock",
    "County": "Pulaski",
    "State": "Arkansas",
    "lat": 34.7574,
    "lng": -92.2674,
    "Website": "http://dogtownfarmersmarket.com"
  },
  {
    "FMID": 1010834,
    "MarketName": "Douglass Loop Farmers' Market",
    "city": "Louisville",
    "County": "Jefferson",
    "State": "Kentucky",
    "lat": 38.2255,
    "lng": -85.6943,
    "Website": "http://www.douglassloopfarmersmarket.com"
  },
  {
    "FMID": 1010972,
    "MarketName": "Down to Earth Morningside Park Farmers Market",
    "city": "Manhattan",
    "County": "New York",
    "State": "New York",
    "lat": 40.8014,
    "lng": -73.9596,
    "Website": "http://www.downtoearthmarkets.com"
  },
  {
    "FMID": 1010961,
    "MarketName": "Down to Earth Piermont Farmers Market",
    "city": "Piermont",
    "County": "Rockland",
    "State": "New York",
    "lat": 41.0412,
    "lng": -73.916,
    "Website": "http://DowntoEarthMarkets.com"
  },
  {
    "FMID": 1009043,
    "MarketName": "Downtown Allen Park Farmers Market",
    "city": "Allen Park",
    "County": "Wayne",
    "State": "Michigan",
    "lat": 42.2548,
    "lng": -83.209,
    "Website": "http://www.allenparkdowntown.com"
  },
  {
    "FMID": 1003643,
    "MarketName": "Downtown Beloit Farmer's Market",
    "city": "Beloit",
    "County": "Rock",
    "State": "Wisconsin",
    "lat": 42.4997,
    "lng": -89.0355,
    "Website": "http://www.downtownbeloit.com"
  },
  {
    "FMID": 1018232,
    "MarketName": "Downtown Bloomington Association Farmers Market",
    "city": "Bloomington",
    "County": "McLean",
    "State": "Illinois",
    "lat": 40.48,
    "lng": -88.9942,
    "Website": "http://downtownbloomington.org/farmers-market/"
  },
  {
    "FMID": 1018236,
    "MarketName": "Downtown Bloomington Farmers Market- Indoor",
    "city": "Bloomington",
    "County": "McLean",
    "State": "Illinois",
    "lat": 40.4785,
    "lng": -88.9964,
    "Website": "http://downtownbloomington.org/farmers-market/"
  },
  {
    "FMID": 1002641,
    "MarketName": "Downtown Danville Farmers Market",
    "city": "Danville",
    "County": "Vermilion",
    "State": "Illinois",
    "lat": 40.1304,
    "lng": -87.6299,
    "Website": "http://www.downtowndanville.org"
  },
  {
    "FMID": 1008853,
    "MarketName": "DOWNTOWN EVANSVILLE FARMERS MARKET",
    "city": "Evansville,IN",
    "County": "Vanderburgh",
    "State": "Indiana",
    "lat": 37.9713,
    "lng": -87.574,
    "Website": "http://www.downtownevansvillefarmersmarket.com"
  },
  {
    "FMID": 1002400,
    "MarketName": "Downtown Farmers Market",
    "city": "Murray",
    "County": "Calloway",
    "State": "Kentucky",
    "lat": 36.6099,
    "lng": -88.3025,
    "Website": "http://www.murraymainstreet.org"
  },
  {
    "FMID": 1010080,
    "MarketName": "Downtown Farmers Market",
    "city": "Walla Walla",
    "County": "Walla Walla",
    "State": "Washington",
    "lat": 46.0662,
    "lng": -118.3416,
    "Website": "http://downtownwallawalla.com/downtownfarmersmarket/"
  },
  {
    "FMID": 1010854,
    "MarketName": "Downtown Farmers' Market",
    "city": "Duluth",
    "County": "St. Louis",
    "State": "Minnesota",
    "lat": 46.7869,
    "lng": -92.0982,
    "Website": "http://www.downtownduluth.com"
  },
  {
    "FMID": 1012608,
    "MarketName": "Downtown Farmers' Market - Des Moines",
    "city": "Des Moines",
    "County": "Polk",
    "State": "Iowa",
    "lat": 41.5853,
    "lng": -93.6204,
    "Website": "http://www.desmoinesfarmersmarket.com/"
  },
  {
    "FMID": 1006081,
    "MarketName": "Downtown Farmers' Market of Fort Pierce, Inc.",
    "city": "fort pierce",
    "County": "St. Lucie",
    "State": "Florida",
    "lat": 27.4489,
    "lng": -80.3217,
    "Website": "http://www.fortpiercefarmersmarket.com/"
  },
  {
    "FMID": 1012243,
    "MarketName": "Downtown Fond du Lac Farmers Market - Saturday",
    "city": "Fond du Lac",
    "County": "Fond du Lac",
    "State": "Wisconsin",
    "lat": 43.7754,
    "lng": -88.447,
    "Website": "http://www.downtownfdl.com/farmers-market.html"
  },
  {
    "FMID": 1010525,
    "MarketName": "Downtown Green Bay Farmers Market",
    "city": "Green Bay",
    "County": "Brown",
    "State": "Wisconsin",
    "lat": 44.5131,
    "lng": -88.017,
    "Website": "http://www.downtowngreenbay.com"
  },
  {
    "FMID": 1008125,
    "MarketName": "Downtown Greenville Farmers Market",
    "city": "Greenville",
    "County": "Darke",
    "State": "Ohio",
    "lat": 40.1007,
    "lng": -84.6315,
    "Website": "http://downtowngreenville.org/who-we-are-2/programs-and-initiatives/"
  },
  {
    "FMID": 1012292,
    "MarketName": "Downtown Henderson Farmers Market",
    "city": "Henderson",
    "County": "Clark",
    "State": "Nevada",
    "lat": 36.0395,
    "lng": -114.9817,
    "Website": "http://hendersonfarmersmarketnv.com"
  },
  {
    "FMID": 1008415,
    "MarketName": "Downtown Kaukauna Farmer's Market",
    "city": "Kaukauna",
    "County": "Outagamie",
    "State": "Wisconsin",
    "lat": 44.2772,
    "lng": -88.271,
    "Website": "http://www.cityofkaukauna.com/departments/farmers-market"
  },
  {
    "FMID": 1010225,
    "MarketName": "Downtown Market Grand Rapids",
    "city": "Grand Rapids",
    "County": "Kent",
    "State": "Michigan",
    "lat": 42.9545,
    "lng": -85.6708,
    "Website": "http://downtownmarketgr.com/"
  },
  {
    "FMID": 1018245,
    "MarketName": "Downtown Santa Ana Certified Farmers' Market",
    "city": "Santa Ana",
    "County": "Orange",
    "State": "California",
    "lat": 33.7463,
    "lng": -117.8692,
    "Website": "http://dtsafarmersmarket.com"
  },
  {
    "FMID": 1000550,
    "MarketName": "Downtown Syracuse Farmers Market",
    "city": "Syracuse",
    "County": "Onondaga",
    "State": "New York",
    "lat": 43.0509,
    "lng": -76.1528,
    "Website": "http://www.downtownsyracuse.com"
  },
  {
    "FMID": 1010998,
    "MarketName": "Downtown Terre Haute Farmers' Market",
    "city": "Terre Haute",
    "County": "Vigo",
    "State": "Indiana",
    "lat": 39.4675,
    "lng": -87.4044,
    "Website": "http://www.downtownterrehautefarmersmarket.com"
  },
  {
    "FMID": 1010301,
    "MarketName": "Downtown West Bend Farmers' Market",
    "city": "West Bend",
    "County": "Washington",
    "State": "Wisconsin",
    "lat": 43.4249,
    "lng": -88.1833,
    "Website": "http://www.downtownwestbend.com"
  },
  {
    "FMID": 1012665,
    "MarketName": "Dripping Springs Farmers Market",
    "city": "Dripping Springs",
    "County": "Hays",
    "State": "Texas",
    "lat": 30.1923,
    "lng": -98.0864,
    "Website": "http://cityofdrippingsprings.com"
  },
  {
    "FMID": 1009977,
    "MarketName": "Dublin Farmers' Market",
    "city": "Dublin",
    "County": "Franklin",
    "State": "Ohio",
    "lat": 40.099,
    "lng": -83.1035,
    "Website": "http://www.dublinfarmersmarket.com"
  },
  {
    "FMID": 1005197,
    "MarketName": "Dubuque Farmers Market",
    "city": "Dubuque",
    "County": "Dubuque",
    "State": "Iowa",
    "lat": 42.505,
    "lng": -90.668,
    "Website": "http://www.DubuqueFarmersMarket.org"
  },
  {
    "FMID": 1018159,
    "MarketName": "East Atlanta Village Farmers Market",
    "city": "Atlanta",
    "County": "Fulton",
    "State": "Georgia",
    "lat": 33.7387,
    "lng": -84.3445,
    "Website": "http://cfmatl.org/eav"
  },
  {
    "FMID": 1011673,
    "MarketName": "East End Market",
    "city": "Houston",
    "County": "Harris",
    "State": "Texas",
    "lat": 29.7575,
    "lng": -95.343,
    "Website": "http://eastendfoundation.org"
  },
  {
    "FMID": 1012383,
    "MarketName": "East Hampton Farmers Market LLC",
    "city": "East Hampton",
    "County": "Suffolk",
    "State": "New York",
    "lat": 40.9724,
    "lng": -72.1807
  },
  {
    "FMID": 1002933,
    "MarketName": "East Lake Farmers Market",
    "city": "Atlanta",
    "County": "DeKalb",
    "State": "Georgia",
    "lat": 33.751,
    "lng": -84.3104,
    "Website": "http://www.elfmarket.org"
  },
  {
    "FMID": 1011113,
    "MarketName": "East Nashville Farmers Market",
    "city": "Nashville",
    "County": "Davidson",
    "State": "Tennessee",
    "lat": 36.1642,
    "lng": -86.7397,
    "Website": "http://www.eastnashvillemarket.com"
  },
  {
    "FMID": 1010324,
    "MarketName": "East Sacramento Farmer's Market",
    "city": "Sacramento",
    "County": "Sacramento",
    "State": "California",
    "lat": 38.5761,
    "lng": -121.4579,
    "Website": "http://www.eastsacfarmersmarket.com"
  },
  {
    "FMID": 1001624,
    "MarketName": "Eastern Market Outdoor Farmers Market",
    "city": "Washington",
    "County": "District of Columbia",
    "State": "District of Columbia",
    "lat": 38.8866,
    "lng": -76.9963,
    "Website": "http://www.easternmarket-dc.org"
  },
  {
    "FMID": 1001570,
    "MarketName": "Eau Claire Downtown Farmers Market",
    "city": "Eau Claire",
    "County": "Eau Claire",
    "State": "Wisconsin",
    "lat": 44.8153,
    "lng": -91.5048,
    "Website": "http://www.ecdowntownfarmersmarket.com"
  },
  {
    "FMID": 1012133,
    "MarketName": "Eighth & Enright Farmers Market @ Common Roots",
    "city": "Cincinnati",
    "County": "Hamilton",
    "State": "Ohio",
    "lat": 39.1062,
    "lng": -84.5731
  },
  {
    "FMID": 1012664,
    "MarketName": "El Centro de Laredo Farmers Market",
    "city": "Laredo",
    "County": "Webb",
    "State": "Texas",
    "lat": 27.5053,
    "lng": -99.5087,
    "Website": "http://laredomainstreet.org/"
  },
  {
    "FMID": 1003777,
    "MarketName": "El Dorado Hills, Thursday Farmers Market",
    "city": "El Dorado Hills",
    "County": "El Dorado",
    "State": "California",
    "lat": 38.6835,
    "lng": -121.0755,
    "Website": "http://www.eldoradofarmersmarket.com"
  },
  {
    "FMID": 1018716,
    "MarketName": "El Paso Downtown Artist and Farmers Market",
    "city": "El Paso",
    "County": "El Paso",
    "State": "Texas",
    "lat": 31.7569,
    "lng": -106.4943,
    "Website": "http://mcad.elpasotexas.gov/art-and-farmers-market"
  },
  {
    "FMID": 1011922,
    "MarketName": "Elk Grove Farmers Market",
    "city": "Elk Grove Village",
    "County": "Cook",
    "State": "Illinois",
    "lat": 42.0029,
    "lng": -88.0078,
    "Website": "http://www.elkgrovefarmersmarket.com"
  },
  {
    "FMID": 1002009,
    "MarketName": "Elkin Farmers Market",
    "city": "Elkin",
    "County": "Surry",
    "State": "North Carolina",
    "lat": 36.245,
    "lng": -80.8505,
    "Website": "http://www.surry.ces.ncsu.edu/"
  },
  {
    "FMID": 1012332,
    "MarketName": "Ellington Farmers Market",
    "city": "Ellington",
    "County": "Tolland",
    "State": "Connecticut",
    "lat": 41.9033,
    "lng": -72.4652
  },
  {
    "FMID": 1012050,
    "MarketName": "Ellington Winter Farmers' Market",
    "city": "Ellington",
    "County": "Tolland",
    "State": "Connecticut",
    "lat": 41.8698,
    "lng": -72.4904,
    "Website": "http://www.ellingtonfarmersmarket.com/"
  },
  {
    "FMID": 1003826,
    "MarketName": "Elmwood Bidwell Farmers' Market",
    "city": "Buffalo",
    "County": "Erie",
    "State": "New York",
    "lat": 42.9237,
    "lng": -78.877,
    "Website": "http://www.elmwoodmarket.org"
  },
  {
    "FMID": 1018580,
    "MarketName": "Emerson-Garfield Farmers' Market",
    "city": "Spokane",
    "County": "Spokane",
    "State": "Washington",
    "lat": 47.6792,
    "lng": -117.4261,
    "Website": "http://market.emersongarfield.org"
  },
  {
    "FMID": 1004719,
    "MarketName": "Emporia Farmers Market",
    "city": "Emporia",
    "County": "Lyon",
    "State": "Kansas",
    "lat": 38.4068,
    "lng": -96.1812,
    "Website": "http://www.emporiafarmersmarket.org"
  },
  {
    "FMID": 1012313,
    "MarketName": "Ennis Farmer's Market",
    "city": "Ennis",
    "County": "Madison",
    "State": "Montana",
    "lat": 45.3491,
    "lng": -111.7336,
    "Website": "http://www.madisonfarmtofork.com"
  },
  {
    "FMID": 1012315,
    "MarketName": "Eureka Area Farmers Market",
    "city": "Eureka",
    "County": "Lincoln",
    "State": "Montana",
    "lat": 48.8777,
    "lng": -115.0534,
    "Website": "http://eurekamontana.org"
  },
  {
    "FMID": 1018509,
    "MarketName": "Eureka Farmers' Market",
    "city": "Eureka",
    "County": "St. Louis",
    "State": "Missouri",
    "lat": 38.4978,
    "lng": -90.6282,
    "Website": "https://www.facebook.com/eurekamofarmersmarket/"
  },
  {
    "FMID": 1008261,
    "MarketName": "Evans Towne Farmers Market",
    "city": "Evans",
    "County": "Columbia",
    "State": "Georgia",
    "lat": 33.5465,
    "lng": -82.1329,
    "Website": "http://www.evanstownefarmersmarket.com"
  },
  {
    "FMID": 1001957,
    "MarketName": "Evergreen Farmers Market at Bergen Village",
    "city": "Evergreen",
    "County": "Jefferson",
    "State": "Colorado",
    "lat": 39.6333,
    "lng": -105.3172,
    "Website": "http://www.coloradooutdoormarkets.com"
  },
  {
    "FMID": 1018241,
    "MarketName": "Fair Haven Farmers Market (The Vermont Farmers Market)",
    "city": "Fair Haven",
    "County": "Rutland",
    "State": "Vermont",
    "lat": 43.5946,
    "lng": -73.2669,
    "Website": "https://vtfarmersmarket.org/"
  },
  {
    "FMID": 1018622,
    "MarketName": "Fairfax Community Farmers' Market",
    "city": "Fairfax",
    "County": "Marin",
    "State": "California",
    "lat": 37.9857,
    "lng": -122.59,
    "Website": "http://www.communityfarmersmarkets.com"
  },
  {
    "FMID": 1002518,
    "MarketName": "Fairhaven Farmers Market",
    "city": "Fairhaven",
    "County": "Bristol",
    "State": "Massachusetts",
    "lat": 41.6432,
    "lng": -70.9067,
    "Website": "http://www.greenfairhaven.com"
  },
  {
    "FMID": 1018562,
    "MarketName": "Fairwood Farmers' Market",
    "city": "Spokane",
    "County": "Spokane",
    "State": "Washington",
    "lat": 47.7684,
    "lng": -117.4178,
    "Website": "http://Www.fairwoodfarmersmarket.com"
  },
  {
    "FMID": 1011719,
    "MarketName": "Faith in Place Winter Farmers Market - Berry Memorial United Methodist Church",
    "city": "Chicago",
    "County": "Cook",
    "State": "Illinois",
    "lat": 41.9681,
    "lng": -87.6843,
    "Website": "http://www.faithinplace.org/our-programs/winter-farmers-markets"
  },
  {
    "FMID": 1011720,
    "MarketName": "Faith in Place Winter Farmers Market - Calvary Episcopal Church",
    "city": "Lombard",
    "County": "DuPage",
    "State": "Illinois",
    "lat": 41.8838,
    "lng": -88.0208,
    "Website": "http://www.faithinplace.org/our-programs/winter-farmers-markets"
  },
  {
    "FMID": 1011721,
    "MarketName": "Faith in Place Winter Farmers Market - Church of St. Benedict",
    "city": "Bolingbrook",
    "County": "Will",
    "State": "Illinois",
    "lat": 41.6896,
    "lng": -88.1071,
    "Website": "http://www.faithinplace.org/our-programs/winter-farmers-markets"
  },
  {
    "FMID": 1011725,
    "MarketName": "Faith in Place Winter Farmers Market - Congregational Church of Jefferson Park",
    "city": "Chicago",
    "County": "Cook",
    "State": "Illinois",
    "lat": 41.9665,
    "lng": -87.7608,
    "Website": "http://www.faithinplace.org/our-programs/winter-farmers-markets"
  },
  {
    "FMID": 1011724,
    "MarketName": "Faith in Place Winter Farmers Market - DuPage Unitarian Universalist Church",
    "city": "Naperville",
    "County": "Cook",
    "State": "Illinois",
    "lat": 41.8044,
    "lng": -88.1185,
    "Website": "http://www.faithinplace.org/our-programs/winter-farmers-markets"
  },
  {
    "FMID": 1011726,
    "MarketName": "Faith in Place Winter Farmers Market - Good Shepherd Lutheran Church - Oak Park",
    "city": "Oak Park",
    "County": "Cook",
    "State": "Illinois",
    "lat": 41.8832,
    "lng": -87.7899,
    "Website": "http://www.faithinplace.org/our-programs/winter-farmers-markets"
  },
  {
    "FMID": 1011722,
    "MarketName": "Faith in Place Winter Farmers Market - Greenstone United Methodist Church - Pullman",
    "city": "Chicago",
    "County": "Cook",
    "State": "Illinois",
    "lat": 41.6907,
    "lng": -87.6083,
    "Website": "http://www.faithinplace.org/our-programs/winter-farmers-markets"
  },
  {
    "FMID": 1010174,
    "MarketName": "Falls Church Farmers Market",
    "city": "Falls Church",
    "County": "Falls Church",
    "State": "Virginia",
    "lat": 38.8855,
    "lng": -77.1725,
    "Website": "http://www.fallschurchva.gov/farmersmarket"
  },
  {
    "FMID": 1010889,
    "MarketName": "Falls Park Farmers Market",
    "city": "Sioux Falls",
    "County": "Minnehaha",
    "State": "South Dakota",
    "lat": 43.5608,
    "lng": -96.7232,
    "Website": "http://www.fallsparkfarmersmarket.com"
  },
  {
    "FMID": 1018715,
    "MarketName": "Falmouth Farmers' Market",
    "city": "Falmouth",
    "County": "Barnstable",
    "State": "Massachusetts",
    "lat": 41.5484,
    "lng": -70.6038,
    "Website": "http://falmouthfarmersmarket.org"
  },
  {
    "FMID": 1008076,
    "MarketName": "Farm 2 Family Brunswick Friday Farmers Market",
    "city": "Grass Valley",
    "County": "Nevada",
    "State": "California",
    "lat": 39.2326,
    "lng": -121.0279,
    "Website": "http://www.farm2familydirect.com"
  },
  {
    "FMID": 1010059,
    "MarketName": "Farm Park Farmer's Market",
    "city": "Germantown",
    "County": "Shelby",
    "State": "Tennessee",
    "lat": 35.0758,
    "lng": -89.803,
    "Website": "http://www.farmparkmarket.org"
  },
  {
    "FMID": 1012326,
    "MarketName": "Farmer's Market at Sandpoint",
    "city": "Sandpoint",
    "County": "Bonner",
    "State": "Idaho",
    "lat": 48.2502,
    "lng": -116.6066,
    "Website": "http://farmersmarketatsandpoint.com"
  },
  {
    "FMID": 1002522,
    "MarketName": "Farmer's Market of Carbondale, Illinois",
    "city": "Carbondale",
    "County": "Jackson",
    "State": "Illinois",
    "lat": 37.7289,
    "lng": -89.2427
  },
  {
    "FMID": 1018131,
    "MarketName": "Farmers Market at St. John's",
    "city": "Naperville",
    "County": "DuPage",
    "State": "Illinois",
    "lat": 41.7676,
    "lng": -88.1598,
    "Website": "http://www.stjohns-episcopal.com"
  },
  {
    "FMID": 1018369,
    "MarketName": "Farmers Market at the Fairgrounds",
    "city": "Greenfield",
    "County": "Hancock",
    "State": "Indiana",
    "lat": 39.7912,
    "lng": -85.7561,
    "Website": "https://www.hoosierharvestcouncil.com/farmers-markets/farmers-market-at-the-fairgrounds/"
  },
  {
    "FMID": 1005069,
    "MarketName": "Farmers Market of Bluffton",
    "city": "Bluffton",
    "County": "Beaufort",
    "State": "South Carolina",
    "lat": 32.2348,
    "lng": -80.8626,
    "Website": "http://www.farmersmarketbluffton.org"
  },
  {
    "FMID": 1005159,
    "MarketName": "Farmers Market of the Ozarks",
    "city": "Springfield",
    "County": "Greene",
    "State": "Missouri",
    "lat": 37.1364,
    "lng": -93.2551,
    "Website": "http://www.LoveYourFarmer.com"
  },
  {
    "FMID": 1010320,
    "MarketName": "Farmers Market On Grand Parkway",
    "city": "Katy, Texas",
    "County": "Harris",
    "State": "Texas",
    "lat": 29.7625,
    "lng": -95.775,
    "Website": "http://www.farmersmarketongrandparkway.com"
  },
  {
    "FMID": 1011157,
    "MarketName": "Farmers Market on the Square",
    "city": "Columbia",
    "County": "Adair",
    "State": "Kentucky",
    "lat": 37.103,
    "lng": -85.306,
    "Website": "http://FM2.us"
  },
  {
    "FMID": 1010166,
    "MarketName": "Farmers Market@St. Stephen's",
    "city": "Richmond",
    "County": "Richmond City",
    "State": "Virginia",
    "lat": 37.5735,
    "lng": -77.5223,
    "Website": "http://saintstephensrichmond.net/farmersmarket"
  },
  {
    "FMID": 1018181,
    "MarketName": "Farmers Markets at the Capitol",
    "city": "Lansing",
    "County": "Ingham",
    "State": "Michigan",
    "lat": 42.7336,
    "lng": -84.5539,
    "Website": "http://mifma.org/fmatthecapitol/"
  },
  {
    "FMID": 1010134,
    "MarketName": "Farmers' & Crafts Market of Las Cruces",
    "city": "Las Cruces",
    "County": "Dona Ana",
    "State": "New Mexico",
    "lat": 32.3105,
    "lng": -106.7788,
    "Website": "http://www.fcmlc.org"
  },
  {
    "FMID": 1018427,
    "MarketName": "Farmers' gateway Market",
    "city": "Steubenville",
    "County": "Jefferson",
    "State": "Ohio",
    "lat": 40.3776,
    "lng": -80.6698
  },
  {
    "FMID": 1010823,
    "MarketName": "Farmers' Market at Poplar Grove",
    "city": "Wilmington",
    "County": "Pender",
    "State": "North Carolina",
    "lat": 34.319,
    "lng": -77.7649,
    "Website": "http://www.poplargrove.org/farmers-market/"
  },
  {
    "FMID": 1004129,
    "MarketName": "Farmers' Market of Sault Sainte Marie Michigan",
    "city": "Sault Ste. Marie",
    "County": "Chippewa",
    "State": "Michigan",
    "lat": 46.5001,
    "lng": -84.3458
  },
  {
    "FMID": 1000141,
    "MarketName": "FarmersMarketPlace & More",
    "city": "Little Falls",
    "County": "Passaic",
    "State": "New Jersey",
    "lat": 40.8808,
    "lng": -74.2245,
    "Website": "http://www.abc-littlefalls.org"
  },
  {
    "FMID": 1001405,
    "MarketName": "Farmington Farmers Market",
    "city": "Farmington",
    "County": "St. Francois",
    "State": "Missouri",
    "lat": 37.7819,
    "lng": -90.4075,
    "Website": "http://Chamber@growingfarmington.com"
  },
  {
    "FMID": 1010554,
    "MarketName": "Farmstead Farmers Market",
    "city": "Palmyra",
    "County": "Dauphin",
    "State": "Pennsylvania",
    "lat": 40.3702,
    "lng": -76.6493,
    "Website": "http://www.farmsteadmarket.com"
  },
  {
    "FMID": 1018740,
    "MarketName": "Fayette County Farmers' Market",
    "city": "Connersville",
    "County": "Fayette",
    "State": "Indiana",
    "lat": 39.6408,
    "lng": -85.1403,
    "Website": "http://connersvillecommunity.com/Community/Farmers_Market"
  },
  {
    "FMID": 1012061,
    "MarketName": "Fayettevill, Arkansas Farmers' Market",
    "city": "Fayetteville",
    "County": "Washington",
    "State": "Arkansas",
    "lat": 36.0616,
    "lng": -94.1609
  },
  {
    "FMID": 1011668,
    "MarketName": "Fayetteville Farmers Market CNY",
    "city": "Fayetteville",
    "County": "Onondaga",
    "State": "New York",
    "lat": 43.0334,
    "lng": -76.0195,
    "Website": "http://www.fayettevillefarmersmarketcny.com"
  },
  {
    "FMID": 1012627,
    "MarketName": "Fearrington Farmers' Market",
    "city": "Fearrington Village",
    "County": "Chatham",
    "State": "North Carolina",
    "lat": 35.8001,
    "lng": -79.0865,
    "Website": "http://fearringtonfarmersmarket.com"
  },
  {
    "FMID": 1005743,
    "MarketName": "Federal Way Farmers Market - Common Mall parking lot",
    "city": "Federal Way",
    "County": "King",
    "State": "Washington",
    "lat": 47.3134,
    "lng": -122.313,
    "Website": "http://www.federalwayfarmersmarket.com"
  },
  {
    "FMID": 1010139,
    "MarketName": "Federal Way Farmers Market - Town Square",
    "city": "Federal Way",
    "County": "King",
    "State": "Washington",
    "lat": 47.318,
    "lng": -122.3072,
    "Website": "http://www.federalwayfarmersmarket.com"
  },
  {
    "FMID": 1010518,
    "MarketName": "Fenway South Farmers Market",
    "city": "Fort Myers",
    "County": "Lee",
    "State": "Florida",
    "lat": 26.5493,
    "lng": -81.7623,
    "Website": "http://buyLocalLee.com"
  },
  {
    "FMID": 1008226,
    "MarketName": "Fernandina Beach Market Place",
    "city": "Fernandina Beach",
    "County": "Nassau",
    "State": "Florida",
    "lat": 30.671,
    "lng": -81.4596,
    "Website": "http://www.FernandinaBeachMarketPlace.com"
  },
  {
    "FMID": 1007239,
    "MarketName": "Festival Foods Farmers Market - Sunday",
    "city": "Eau Claire",
    "County": "Eau Claire",
    "State": "Wisconsin",
    "lat": 44.7882,
    "lng": -91.4603,
    "Website": "http://www.festfoods.com"
  },
  {
    "FMID": 1010317,
    "MarketName": "Findlay Farmers Market",
    "city": "Findlay",
    "County": "Shelby",
    "State": "Illinois",
    "lat": 39.5221,
    "lng": -88.7535,
    "Website": "http://www.findlayillinois.net"
  },
  {
    "FMID": 1003146,
    "MarketName": "First & Main Town Center Mall Farmers Market",
    "city": "Colorado Springs",
    "County": "El Paso",
    "State": "Colorado",
    "lat": 38.8806,
    "lng": -104.7189,
    "Website": "http://www.millerfarms.net"
  },
  {
    "FMID": 1001752,
    "MarketName": "Five Points Community Farm Market",
    "city": "Norfolk",
    "County": "Norfolk",
    "State": "Virginia",
    "lat": 36.87,
    "lng": -76.2797,
    "Website": "http://www.5ptsfarmmarket.org/"
  },
  {
    "FMID": 1018125,
    "MarketName": "Flint Farmers' Market",
    "city": "Flint",
    "County": "Genesee",
    "State": "Michigan",
    "lat": 43.0172,
    "lng": -83.6872,
    "Website": "http://www.flintfarmersmarket.com"
  },
  {
    "FMID": 1005082,
    "MarketName": "Flossmoor Farmers Market",
    "city": "Flossmoor",
    "County": "Cook",
    "State": "Illinois",
    "lat": 41.5438,
    "lng": -87.6787,
    "Website": "http://Www Flossmoor.org"
  },
  {
    "FMID": 1003222,
    "MarketName": "Fluvanna Farmers Market",
    "city": "Palmyra",
    "County": "Fluvanna",
    "State": "Virginia",
    "lat": 37.8693,
    "lng": -78.2933,
    "Website": "http://fluvannafarmersmarket.webs.com/"
  },
  {
    "FMID": 1016840,
    "MarketName": "Food for Thought Summer Market",
    "city": "Casper",
    "County": "Natrona",
    "State": "Wyoming",
    "lat": 42.8483,
    "lng": -106.3199,
    "Website": "http://www.wyfftp.org"
  },
  {
    "FMID": 1011842,
    "MarketName": "FoodInRoot Banner University Medical Center Farmers Market",
    "city": "Tucson",
    "County": "Pima",
    "State": "Arizona",
    "lat": 32.2401,
    "lng": -110.946,
    "Website": "http://foodinroot.com/"
  },
  {
    "FMID": 1011848,
    "MarketName": "FoodInRoot Main Campus Farmers' Market-UofA Mall",
    "city": "Tucson",
    "County": "Pima",
    "State": "Arizona",
    "lat": 32.2326,
    "lng": -110.9522,
    "Website": "http://foodinroot.com"
  },
  {
    "FMID": 1011849,
    "MarketName": "FoodInRoot Rancho Sahuarita Twilight Market",
    "city": "Sahuarita",
    "County": "Pima",
    "State": "Arizona",
    "lat": 31.9699,
    "lng": -110.9682,
    "Website": "http://foodinroot.com"
  },
  {
    "FMID": 1018224,
    "MarketName": "FoodInRoot St. Philip's Plaza Farmers' Market",
    "city": "Tucson",
    "County": "Pima",
    "State": "Arizona",
    "lat": 32.2856,
    "lng": -110.9429,
    "Website": "http://foodinroot.com/"
  },
  {
    "FMID": 1010427,
    "MarketName": "Forsyth Farmers Market",
    "city": "Forsyth",
    "County": "Monroe",
    "State": "Georgia",
    "lat": 33.0367,
    "lng": -83.9397,
    "Website": "http://www:cityofforsyth.net"
  },
  {
    "FMID": 1011136,
    "MarketName": "Fort Collins Farmers Market",
    "city": "Fort Collins",
    "County": "Larimer",
    "State": "Colorado",
    "lat": 40.5223,
    "lng": -105.0597,
    "Website": "http://www.fortcollinsfm.com/"
  },
  {
    "FMID": 1004605,
    "MarketName": "Fort Lee Farmer's Market",
    "city": "Fort Lee",
    "County": "Bergen",
    "State": "New Jersey",
    "lat": 40.8445,
    "lng": -73.98
  },
  {
    "FMID": 1018373,
    "MarketName": "Fort Myers River District Farmers Market",
    "city": "Fort Myers",
    "County": "Lee",
    "State": "Florida",
    "lat": 26.6426,
    "lng": -81.8732,
    "Website": "http://BuyLocalLee.com"
  },
  {
    "FMID": 1012842,
    "MarketName": "Fort Smith Farmers Market",
    "city": "Fort Smith",
    "County": "Sebastian",
    "State": "Arkansas",
    "lat": 35.3899,
    "lng": -94.428
  },
  {
    "FMID": 1018505,
    "MarketName": "Fort Sumner Farmers Market",
    "city": "Fort Sumner",
    "County": "De Baca",
    "State": "New Mexico",
    "lat": 34.4708,
    "lng": -104.244
  },
  {
    "FMID": 1002838,
    "MarketName": "Fort Thomas Farmers' Market - Historic Midway Business District",
    "city": "Fort Thomas",
    "County": "Campbell",
    "State": "Kentucky",
    "lat": 39.0641,
    "lng": -84.4469,
    "Website": "http://www.ftthomas.org"
  },
  {
    "FMID": 1008067,
    "MarketName": "Fortville Farmers Market",
    "city": "Fortville",
    "County": "Hancock",
    "State": "Indiana",
    "lat": 39.9288,
    "lng": -85.846,
    "Website": "http://www.hoosierharvestcouncil.com/farmers-markets/fortville-farmers-market/"
  },
  {
    "FMID": 1011779,
    "MarketName": "Four Seasons Farmers and Artisans Market",
    "city": "Wheat Ridge",
    "County": "Jefferson",
    "State": "Colorado",
    "lat": 39.7699,
    "lng": -105.0752,
    "Website": "http://www.fourseasonsfam.com/wordpress/"
  },
  {
    "FMID": 1002880,
    "MarketName": "Frankenmuth Farmers Market",
    "city": "Frankenmuth",
    "County": "Saginaw",
    "State": "Michigan",
    "lat": 43.3443,
    "lng": -83.7382,
    "Website": "http://www.frankenmuthfarmersmarket.org"
  },
  {
    "FMID": 1005988,
    "MarketName": "Frankfort Country Market",
    "city": "frankfort",
    "County": "Will",
    "State": "Illinois",
    "lat": 41.4984,
    "lng": -87.8438,
    "Website": "http://www.merrillsmarkets.com"
  },
  {
    "FMID": 1011098,
    "MarketName": "Franklin Farmers Market",
    "city": "Franklin",
    "County": "Williamson",
    "State": "Tennessee",
    "lat": 35.932,
    "lng": -86.858,
    "Website": "http://Www.franklinfarmersmarket.com"
  },
  {
    "FMID": 1011256,
    "MarketName": "Franklin Farmers Market",
    "city": "Franklin",
    "County": "Johnson",
    "State": "Indiana",
    "lat": 39.4802,
    "lng": -86.0569,
    "Website": "http://www.discoverdowntownfranklin.com"
  },
  {
    "FMID": 1018035,
    "MarketName": "Franklin Street Bazaar",
    "city": "Evansville",
    "County": "Vanderburgh",
    "State": "Indiana",
    "lat": 37.9804,
    "lng": -87.5948,
    "Website": "https://www.fallinlovewithfranklin.org/featuredevents"
  },
  {
    "FMID": 1006031,
    "MarketName": "Fredericksburg City Farmers Market",
    "city": "Fredericksburg",
    "County": "Spotsylvania",
    "State": "Virginia",
    "lat": 38.302,
    "lng": -77.4625
  },
  {
    "FMID": 1011191,
    "MarketName": "Fredonia Farmers Market - Summer",
    "city": "Fredonia",
    "County": "Chautauqua",
    "State": "New York",
    "lat": 42.4406,
    "lng": -79.3324,
    "Website": "http://www.fredoniafarmersmarket.com"
  },
  {
    "FMID": 1012645,
    "MarketName": "Freight House Farmers' Market",
    "city": "Davenport",
    "County": "Scott",
    "State": "Iowa",
    "lat": 41.52,
    "lng": -90.5803,
    "Website": "http://www.freighthhousefarmersmarket.com"
  },
  {
    "FMID": 1000820,
    "MarketName": "fresh52 Farmers & Artisan Market  @ Sansone Park Place",
    "city": "Las Vegas",
    "County": "Clark",
    "State": "Nevada",
    "lat": 36.0688,
    "lng": -115.1768,
    "Website": "http://www.fresh52.com"
  },
  {
    "FMID": 1000819,
    "MarketName": "fresh52 Farmers & Artisan Market @ Tivoli Village",
    "city": "Las Vegas",
    "County": "Clark",
    "State": "Nevada",
    "lat": 36.0688,
    "lng": -115.1768,
    "Website": "http://www.fresh52.com"
  },
  {
    "FMID": 1011730,
    "MarketName": "Friendswood Farmers Market",
    "city": "Friendswood",
    "County": "Galveston",
    "State": "Texas",
    "lat": 29.5208,
    "lng": -95.1913,
    "Website": "http://friendswoodmarket.com"
  },
  {
    "FMID": 1010955,
    "MarketName": "Frisco Rotary Farmers Market",
    "city": "Frisco",
    "County": "Collin",
    "State": "Texas",
    "lat": 33.1512,
    "lng": -96.8322,
    "Website": "http://www.friscorotaryfarmersmarket.com"
  },
  {
    "FMID": 1010765,
    "MarketName": "Front Royal Farmers Market",
    "city": "Front Royal",
    "County": "Warren",
    "State": "Virginia",
    "lat": 38.918,
    "lng": -78.1896,
    "Website": "http://www.FrontRoyalFarmersMarket.com"
  },
  {
    "FMID": 1011181,
    "MarketName": "Frostville Museum Farmers Market",
    "city": "North Olmsted",
    "County": "Cuyahoga",
    "State": "Ohio",
    "lat": 41.4055,
    "lng": -81.8917,
    "Website": "http://www.frostvillefarmersmarket.com"
  },
  {
    "FMID": 1003170,
    "MarketName": "Fulton Farmers Market",
    "city": "Minneapolis",
    "County": "Hennepin",
    "State": "Minnesota",
    "lat": 44.9136,
    "lng": -93.325,
    "Website": "http://www.neighborhoodrootsmn.org"
  },
  {
    "FMID": 1006661,
    "MarketName": "Fulton Street Farmers Market",
    "city": "Grand Rapids",
    "County": "Kent",
    "State": "Michigan",
    "lat": 42.9639,
    "lng": -85.6405,
    "Website": "http://www.fultonstreetmarket.org"
  },
  {
    "FMID": 1005120,
    "MarketName": "Gallatin Valley Farmers' Market",
    "city": "Bozeman",
    "County": "Gallatin",
    "State": "Montana",
    "lat": 45.6893,
    "lng": -111.0399,
    "Website": "http://www.gallatinvalleyfarmersmarket.com"
  },
  {
    "FMID": 1001947,
    "MarketName": "Galleria Red Bank Farmers Market",
    "city": "Red Bank",
    "County": "Monmouth",
    "State": "New Jersey",
    "lat": 40.3507,
    "lng": -74.0763,
    "Website": "http://www.Thegalleriaredbank.com"
  },
  {
    "FMID": 1012691,
    "MarketName": "Geneva French Market",
    "city": "Geneva",
    "County": "DuPage",
    "State": "Illinois",
    "lat": 41.8838,
    "lng": -88.3112,
    "Website": "http://www.bensidounmidwestmarkets.com/"
  },
  {
    "FMID": 1003354,
    "MarketName": "Georgetown Farmers' Market",
    "city": "Georgetown",
    "County": "Sussex",
    "State": "Delaware",
    "lat": 38.6788,
    "lng": -75.3782,
    "Website": "http://www.georgetowncoc.com"
  },
  {
    "FMID": 1009958,
    "MarketName": "Gervasi Vineyard Farmers Market",
    "city": "Canton",
    "County": "Stark",
    "State": "Ohio",
    "lat": 40.8596,
    "lng": -81.3514,
    "Website": "http://www.gervasivineyard.com/Events/Farmers-Market"
  },
  {
    "FMID": 1011886,
    "MarketName": "Get Right Farmers Market",
    "city": "GREENVILLE",
    "County": "Pitt",
    "State": "North Carolina",
    "lat": 35.6751,
    "lng": -77.4524,
    "Website": "http://www.getrightfarmersmarket.com"
  },
  {
    "FMID": 1011962,
    "MarketName": "Gilbert Farmers Market",
    "city": "Gilbert",
    "County": "Maricopa",
    "State": "Arizona",
    "lat": 33.3545,
    "lng": -111.7913,
    "Website": "http://gilbertmarket.com"
  },
  {
    "FMID": 1006932,
    "MarketName": "Gillette Farmers' Market",
    "city": "Gillette",
    "County": "Campbell",
    "State": "Wyoming",
    "lat": 44.2906,
    "lng": -105.5044
  },
  {
    "FMID": 1001630,
    "MarketName": "Gladwin Farmers Market",
    "city": "Gladwin",
    "County": "Gladwin",
    "State": "Michigan",
    "lat": 43.9809,
    "lng": -84.4815
  },
  {
    "FMID": 1016888,
    "MarketName": "Glen Rock Farmers Market",
    "city": "Glen Rock",
    "County": "Bergen",
    "State": "New Jersey",
    "lat": 40.9619,
    "lng": -74.1282,
    "Website": "http://grfarmersmarket@gmail.com"
  },
  {
    "FMID": 1012381,
    "MarketName": "Glencoe French Market",
    "city": "Glencoe",
    "County": "Cook",
    "State": "Illinois",
    "lat": 42.134,
    "lng": -87.7584,
    "Website": "http://www.bensidounmidwestmarkets.com/"
  },
  {
    "FMID": 1018066,
    "MarketName": "Glendale Farmers Market",
    "city": "Glendale",
    "County": "Maricopa",
    "State": "Arizona",
    "lat": 33.5426,
    "lng": -112.1862,
    "Website": "http://glendalefarmersmarket.org"
  },
  {
    "FMID": 1003511,
    "MarketName": "Glenside Farmers Market",
    "city": "Glenside",
    "County": "Montgomery",
    "State": "Pennsylvania",
    "lat": 40.1006,
    "lng": -75.1535,
    "Website": "http://www.theglensidefarmersmarket.com"
  },
  {
    "FMID": 1004662,
    "MarketName": "Glenview Farmers Market",
    "city": "Glenview",
    "County": "Cook",
    "State": "Illinois",
    "lat": 42.0819,
    "lng": -87.7808,
    "Website": "http://www.glenviewparks.org"
  },
  {
    "FMID": 1005099,
    "MarketName": "Golden Farmers Market",
    "city": "Golden",
    "County": "Jefferson",
    "State": "Colorado",
    "lat": 39.7554,
    "lng": -105.226,
    "Website": "http://www.goldenfarmersmarket.org"
  },
  {
    "FMID": 1018354,
    "MarketName": "Goldendale Farmers Market",
    "city": "Goldendale",
    "County": "Klickitat",
    "State": "Washington",
    "lat": 45.8246,
    "lng": -120.819,
    "Website": "http://www.goldendalechamber.org/goldendale-farmers-market.html"
  },
  {
    "FMID": 1012510,
    "MarketName": "Good Local Markets at Lakeside Farmers Market",
    "city": "Dallas",
    "County": "Dallas",
    "State": "Texas",
    "lat": 32.8294,
    "lng": -96.7069,
    "Website": "http://www.goodlocalmarkets.org"
  },
  {
    "FMID": 1012509,
    "MarketName": "Good Local Markets at Vickery Meadow",
    "city": "Dallas",
    "County": "Dallas",
    "State": "Texas",
    "lat": 32.8662,
    "lng": -96.7648,
    "Website": "http://www.goodlocalmarkets.org"
  },
  {
    "FMID": 1012311,
    "MarketName": "Goodell Gardens Farmers Market",
    "city": "Edinboro",
    "County": "Erie",
    "State": "Pennsylvania",
    "lat": 41.877,
    "lng": -80.1231,
    "Website": "http://www.goodellgardens.org"
  },
  {
    "FMID": 1012498,
    "MarketName": "Goodyear Community Farmers Market",
    "city": "Litchfield Park",
    "County": "Maricopa",
    "State": "Arizona",
    "lat": 33.4825,
    "lng": -112.361,
    "Website": "http://www.arizonacommunityfarmersmarkets.com/FM_Goodyear.html"
  },
  {
    "FMID": 1012253,
    "MarketName": "Goshen Farmers Market",
    "city": "Goshen",
    "County": "Orange",
    "State": "New York",
    "lat": 41.4021,
    "lng": -74.3233,
    "Website": "http://Goshen New York Chamber.com"
  },